op_type,district,street,rooms,area,floor,total_floors,house_seria,house_type,condition,price,lat,lon
For rent,Purvciems,Dzelzavas 93,1,27.0,3.0,5.0,LT proj.,Brick-Panel,All amenities,250.0,56.9554841,24.20213933925591
For rent,Ziepniekkalns,Ozolciema 32,2,50.0,7.0,9.0,602.,Panel,All amenities,300.0,56.89979805,24.098350150000005
For sale,centrs,Ieroču 6,2,33.0,1.0,2.0,P. kara,Wood,Partial amenities,13500.0,56.9750922,24.1398842
For sale,Ķengarags,Maskavas 305,2,50.0,5.0,5.0,LT proj.,Panel,All amenities,34000.0,56.8597884,24.3083417
For rent,Teika,Zemgala gatve 80,3,76.0,3.0,12.0,Jaun.,Masonry,All amenities,490.0,56.97774520000001,24.16604241357143
For rent,centrs,Ģertrūdes 16,2,40.0,3.0,6.0,P. kara,Masonry,All amenities,440.0,56.95665940000001,24.1237638
For sale,Ķengarags,Lokomotīves 20,2,37.0,5.0,5.0,Specpr.,Brick,All amenities,31000.0,56.91527335,24.18936465
For rent,centrs,Avotu 7,2,48.0,5.0,5.0,P. kara,Brick,All amenities,400.0,56.950944400000004,24.12835777122905
For rent,Jugla,Juglas 53,2,45.0,2.0,5.0,Hrušč.,Panel,All amenities,360.0,56.9761694,24.2544503
For sale,Mangaļi,Mores 3,2,46.0,4.0,5.0,Hrušč.,Panel,All amenities,39999.0,57.0188111,24.13501185
For sale,Jugla,Baltezera 1,3,58.0,4.0,5.0,Specpr.,Brick,All amenities,50000.0,56.9927003,24.240059699999996
For sale,Mežciems,Gaiļezera 4,2,50.0,1.0,9.0,602.,Panel,All amenities,53000.0,56.96794800000001,24.23515863117775
For sale,Maskavas priekšpilsēta,Maskavas 291 k1,3,60.0,2.0,5.0,LT proj.,Panel,All amenities,48000.0,56.922806900000005,24.1703845
For sale,Zolitūde,Zolitūdes 46/2,1,46.0,9.0,9.0,119.,Panel,All amenities,38500.0,56.9461963,24.0014164
For sale,Mežciems,Celmu 5,2,36.0,1.0,5.0,LT proj.,Panel,All amenities,46000.0,56.973635800000004,24.233530915029387
For sale,centrs,Krāsotāju 25,2,36.0,5.0,5.0,P. kara,Masonry,All amenities,54900.0,56.9562996,24.1467585
For rent,Ziepniekkalns,Ozolciema 54,1,44.0,4.0,9.0,M. ģim.,Panel,All amenities,240.0,56.9014001,24.099885564510004
For sale,Ķengarags,Maskavas 268/5,3,60.0,3.0,5.0,Hrušč.,Panel,All amenities,56500.0,56.89458570000001,24.2163422
For sale,Mežciems,Eizenšteina 57,3,62.0,6.0,9.0,602.,Panel,All amenities,52500.0,56.96342305,24.23512972519864
For rent,Bolderāja,Stagaru 4,2,50.0,2.0,5.0,Specpr.,Panel,All amenities,260.0,57.02965155,24.035975194523694
For sale,Purvciems,Dzelzavas 13,2,44.0,4.0,5.0,Hrušč.,Brick,Without amenities,39000.0,56.9636785,24.170616738324558
For rent,centrs,Čaka 33,2,40.0,4.0,6.0,P. kara,Masonry,All amenities,395.0,56.9521436,24.1276865
For rent,centrs,Bruņinieku 115,2,45.0,2.0,4.0,Renov.,Masonry,All amenities,350.0,56.94997100000001,24.144142335231727
For rent,Grīziņkalns,Alauksta 4a,1,26.0,2.0,3.0,Renov.,Wood,All amenities,345.0,56.9610304,24.147640600000003
For rent,Ziepniekkalns,Kartupeļu 47,2,56.0,8.0,9.0,Specpr.,Brick,All amenities,250.0,56.91095995,24.110000456931477
For rent,Bolderāja,Gobas 16,1,34.0,3.0,5.0,103.,Brick-Panel,All amenities,210.0,57.03135185,24.050864684267715
For sale,Dreiliņi,Valtera 5,4,78.0,1.0,9.0,602.,Panel,All amenities,91000.0,56.94692714999999,24.23651135625275
For sale,Ķengarags,Prūšu 22,2,42.0,3.0,5.0,Hrušč.,Brick,All amenities,45900.0,56.913476100000004,24.18677075
For sale,Pļavnieki,Dzeņu 12,1,35.0,1.0,9.0,602.,Brick-Panel,All amenities,37000.0,56.9397226,24.212624366413962
For rent,Dzegužkalns,Purva 25,1,29.0,4.0,5.0,LT proj.,Panel,All amenities,240.0,56.95770335,24.05052070142095
For rent,Imanta,Slokas 130a,2,60.0,3.0,8.0,Jaun.,Masonry,All amenities,580.0,56.96485355,24.01574948511005
For sale,Imanta,Slokas 130a,2,62.0,3.0,5.0,Jaun.,Masonry,All amenities,120000.0,56.96485355,24.01574948511005
For rent,centrs,Indrānu 13,1,34.0,5.0,5.0,LT proj.,Brick-Panel,All amenities,320.0,56.968595900000004,24.145257169252524
For sale,Ķengarags,Festivāla 1,3,55.0,3.0,5.0,Specpr.,Brick,All amenities,43000.0,56.90348845,24.20369795
For rent,Purvciems,Ieriķu 58,1,43.0,9.0,9.0,Specpr.,Brick,All amenities,25.0,56.9655674,24.183004313625368
For rent,Ķīpsala,Balasta d. 72,2,86.0,2.0,4.0,Jaun.,Masonry,All amenities,1200.0,56.948934400000006,24.0882804
For rent,centrs,Barona 14,1,40.0,4.0,5.0,Renov.,Masonry,All amenities,600.0,56.9506147,24.121231299999998
For rent,centrs,Bruņinieku 64,2,36.0,3.0,3.0,P. kara,Brick,All amenities,250.0,56.953070600000004,24.1376419
For sale,centrs,Tērbatas 46,3,85.0,3.0,6.0,P. kara,Brick,All amenities,170000.0,56.9559527,24.1267505
For sale,Teika,Brīvības gatve 313,3,79.0,3.0,5.0,Specpr.,Brick-Panel,All amenities,85000.0,56.98279245000001,24.19636687544211
For sale,Jugla,Murjāņu 38,2,45.0,2.0,5.0,Hrušč.,Panel,All amenities,40000.0,56.97808055,24.247249000000004
For rent,centrs,Republikas laukums 3,1,46.0,4.0,7.0,Jaun.,Masonry,All amenities,39.0,56.9552522,24.0999991251943
For rent,Purvciems,Ieriķu 58,1,40.0,2.0,5.0,Specpr.,Brick-Panel,All amenities,235.0,56.9655674,24.183004313625368
For rent,centrs,Asara 15,1,38.0,5.0,2.0,Specpr.,Brick,All amenities,280.0,56.95636735,24.155689863891233
For rent,Purvciems,Pūces 19,2,46.0,2.0,5.0,Jaun.,Panel,All amenities,430.0,56.95632235,24.185978558965612
For rent,Krasta r-ns,Lubānas 56,1,36.0,6.0,9.0,602.,Panel,All amenities,290.0,56.93144315,24.175756900229654
For rent,Mangaļi,Ezera 6,2,40.0,1.0,2.0,Renov.,Wood,All amenities,220.0,57.0196416,24.126994032173137
For rent,Jugla,Baltezera 1,2,49.0,2.0,5.0,LT proj.,Brick-Panel,All amenities,300.0,56.9927003,24.240059699999996
For rent,centrs,Asara 12,3,50.0,4.0,5.0,Renov.,Masonry,All amenities,450.0,56.9553833,24.1488881
For rent,Klīversala,Klīveru 1,1,26.0,4.0,4.0,P. kara,Masonry,All amenities,245.0,56.94306285,24.09127711461696
For sale,centrs,Tērbatas 65,3,91.0,4.0,6.0,P. kara,Masonry,All amenities,150000.0,56.9581924,24.130661899999996
For sale,centrs,Artilērijas 1,3,96.0,3.0,6.0,P. kara,Masonry,All amenities,100000.0,56.95795329999999,24.142511600000002
For rent,Vecmīlgrāvis,Rīnūžu 11,2,53.0,5.0,5.0,103.,Brick-Panel,All amenities,270.0,57.0378821,24.08967795920556
For sale,Āgenskalns,Kalnciema 106a,2,68.0,2.0,4.0,Jaun.,Masonry,All amenities,105000.0,56.93662655,24.043335653298612
For sale,Zasulauks,Kalnciema 106a,2,68.0,2.0,4.0,Jaun.,Masonry,All amenities,105000.0,56.93662655,24.043335653298612
For rent,Pļavnieki,Jasmuižas 15,1,32.0,2.0,9.0,602.,Panel,All amenities,220.0,56.93685365,24.213177111898094
For sale,Pļavnieki,Salnas 22,1,40.0,4.0,5.0,M. ģim.,Panel,All amenities,33000.0,56.94177625,24.2254638
For sale,centrs,Bruņinieku 147,5,83.0,1.0,2.0,P. kara,Wood,Partial amenities,27890.0,56.9599542,24.1248268
For sale,Āgenskalns,Kuldīgas 10,1,17.5,1.0,2.0,P. kara,Wood,Partial amenities,9890.0,56.951762800000004,24.067348709240818
For sale,Jugla,Kvēles 27,2,45.0,1.0,5.0,LT proj.,Panel,All amenities,41000.0,56.98203929999999,24.246020693013463
For rent,centrs,Pērnavas 10,1,32.0,5.0,5.0,Hrušč.,Brick,All amenities,255.0,56.964723899999996,24.1477109
For rent,Purvciems,Sesku 26,1,42.0,3.0,5.0,M. ģim.,Brick-Panel,All amenities,270.0,56.9449076,24.17802943789207
For sale,Ziepniekkalns,Valdeķu 53,3,75.0,9.0,10.0,119.,Panel,All amenities,72000.0,56.90154795,24.092467407342486
For rent,Ziepniekkalns,Ozolciema 18,1,50.0,3.0,9.0,119.,Panel,All amenities,29.0,56.89859735,24.08767079999982
For rent,Ziepniekkalns,Bērzupes 23,1,31.0,2.0,5.0,LT proj.,Panel-Brick,All amenities,250.0,56.915175100000006,24.093057331902827
For sale,Pļavnieki,Lubānas 129,1,41.0,1.0,9.0,M. ģim.,Panel,All amenities,34000.0,56.93257265,24.2080293
For sale,centrs,Pētersalas 2,5,144.0,1.0,5.0,Specpr.,Masonry,All amenities,74800.0,56.9678993,24.10503793415288
For sale,centrs,Ādmiņu 6,2,36.0,2.0,2.0,P. kara,Masonry,Partial amenities,25000.0,56.949362,24.14052317479452
For rent,Jugla,Veldres 32,1,33.0,12.0,12.0,Specpr.,Brick-Panel,All amenities,230.0,56.9764669,24.24432072931075
For rent,Sarkandaugava,Tilta 5,Citi,76.0,2.0,4.0,P. kara,Masonry,All amenities,295.0,56.9950728,24.127396100000002
For rent,Maskavas priekšpilsēta,Daugavpils 76,1,25.0,5.0,6.0,P. kara,Brick,All amenities,250.0,56.9464309,24.14139621313611
For rent,Āgenskalns,Kristapa 8,1,18.0,1.0,4.0,M. ģim.,Brick,All amenities,220.0,56.9428655,24.060963208642875
For sale,Daugavgrīva,Slimnīcas 6,2,53.0,2.0,5.0,103.,Brick-Panel,All amenities,31900.0,57.0408667,24.03274137094086
For rent,centrs,Barona 76,3,67.0,2.0,6.0,Renov.,Masonry,All amenities,750.0,56.95643795,24.132572982155622
For rent,centrs,Tallinas 65,3,83.0,5.0,5.0,Renov.,Masonry,All amenities,900.0,56.95878525,24.144589118130806
For rent,Ķengarags,Prūšu 3,1,30.0,5.0,5.0,LT proj.,Panel,All amenities,220.0,56.916943999999994,24.18423004558955
For sale,centrs,Avotu 4,2,41.0,4.0,5.0,Renov.,Masonry,All amenities,57500.0,56.95081629999999,24.1271389
For rent,centrs,Klijānu 2e,1,30.0,2.0,9.0,Renov.,Brick-Panel,All amenities,270.0,56.974699,24.1449329
For rent,Āgenskalns,Āgenskalna 22,2,41.0,3.0,5.0,Hrušč.,Brick,All amenities,330.0,56.94561039999999,24.0623652
For rent,centrs,Čaka 96,2,62.0,3.0,5.0,Jaun.,Brick-Panel,All amenities,700.0,56.957181299999995,24.139466793963688
For rent,centrs,Ausekļa 7,2,77.0,3.0,6.0,Renov.,Brick,All amenities,600.0,56.96104425,24.099655755347374
For sale,Imanta,Anniņmuižas bulvāris 38,2,60.0,2.0,17.0,Jaun.,Masonry,All amenities,88000.0,56.96112105,24.018216795250048
For sale,Āgenskalns,Mārupes 47,3,68.0,3.0,5.0,Specpr.,Brick-Panel,All amenities,89000.0,56.92716239999999,24.076977177644547
For rent,Imanta,M. Krūmu 6,1,29.0,4.0,5.0,LT proj.,Panel,All amenities,230.0,56.9584558,24.00285610195255
For sale,Dreiliņi,Kaivas 33/1,3,86.0,4.0,4.0,Jaun.,Panel-Brick,All amenities,130000.0,56.9541725,24.2443253
For rent,centrs,Lāčplēša 147,1,20.0,2.0,4.0,Jaun.,Brick,All amenities,210.0,56.9468471,24.133767000000002
For rent,Purvciems,Marsa g. 12,1,26.0,3.0,5.0,LT proj.,Panel,All amenities,240.0,56.95183839999999,24.1999196
For sale,Iļģuciems,Grīvas 11,3,55.0,3.0,5.0,Hrušč.,Brick,All amenities,63000.0,56.9654887,24.04998795
For sale,Sarkandaugava,Sarkandaugavas 11,2,50.0,6.0,9.0,602.,Panel,All amenities,47000.0,56.99898215,24.12328767499813
For sale,Imanta,Jūrmalas g. 99,3,63.0,5.0,9.0,602.,Panel,All amenities,50000.0,56.952975,24.016697100000002
For sale,Ziepniekkalns,Ozolciema 32/3,2,50.0,1.0,9.0,602.,Panel,All amenities,49000.0,56.899030700000004,24.078598899999996
For rent,centrs,Grostonas 17,3,88.0,7.0,8.0,Jaun.,Masonry,All amenities,890.0,56.96998705,24.12421088272788
For rent,centrs,Ģertrūdes 84,2,53.0,3.0,6.0,P. kara,Masonry,All amenities,350.0,56.9471865,24.1411337
For sale,Berģi,Berģu 9,3,58.0,1.0,4.0,Hrušč.,Brick,Partial amenities,60000.0,56.99786715000001,24.277341526994306
For sale,Bolderāja,Silikātu 1k2,2,44.0,1.0,3.0,Hrušč.,Brick,All amenities,35400.0,57.027267099999996,24.0389108
For sale,Ziepniekkalns,Staburaga 3,2,48.0,3.0,3.0,Hrušč.,Brick,All amenities,65000.0,56.91116745,24.11631975
For rent,Krasta r-ns,Maskavas 237,1,30.0,5.0,5.0,Hrušč.,Brick,All amenities,260.0,56.9275041,24.167067392822734
For sale,Ķengarags,Maskavas 279,3,55.0,5.0,5.0,LT proj.,Brick,All amenities,43000.0,56.91925545,24.173829491186872
For sale,Purvciems,Madonas 19,1,46.0,6.0,9.0,119.,Panel,All amenities,43500.0,56.96043465,24.17048602078153
For rent,Imanta,Anniņmuižas bulvāris 43,2,45.0,9.0,24.0,Jaun.,Brick-Panel,All amenities,50.0,56.95903060000001,24.013887042852996
For rent,Dzegužkalns,Dzirciema 33,3,61.0,4.0,5.0,LT proj.,Panel,All amenities,340.0,56.95621729999999,24.05205275
For rent,Pļavnieki,Zemes 9,1,36.0,1.0,9.0,M. ģim.,Panel,All amenities,240.0,56.94229549999999,24.19988595647548
For sale,Purvciems,Brantkalna 12,3,76.0,8.0,9.0,119.,Panel,All amenities,88000.0,56.949164399999994,24.1939752
For sale,Purvciems,Nīcgales 36,3,82.0,4.0,5.0,Jaun.,Masonry,All amenities,98000.0,56.950588399999994,24.173423899999996
For rent,Pļavnieki,Ilūkstes 55,1,24.0,2.0,1.0,Priv. m.,Masonry,All amenities,220.0,56.940384200000004,24.19460057334529
For rent,Ziepniekkalns,Valdeķu 53,2,55.0,1.0,9.0,119.,Panel,All amenities,330.0,56.90154795,24.092467407342486
For sale,Šķirotava,Krustpils 75,2,49.0,3.0,3.0,Specpr.,Brick,All amenities,35000.0,56.91205765,24.206367299999997
For sale,Dārzciems,Lubānas 56,3,61.0,7.0,9.0,467.,Panel,All amenities,59500.0,56.93144315,24.175756900229654
For rent,Zolitūde,Ruses 3,2,58.0,2.0,9.0,119.,Panel,All amenities,260.0,56.9484028,24.00206886443955
For rent,centrs,Elizabetes 10c,1,45.0,1.0,3.0,Jaun.,Masonry,All amenities,400.0,56.95752295,24.11061548424572
For rent,Ziepniekkalns,Graudu 30,1,36.0,1.0,2.0,Renov.,Masonry,All amenities,250.0,56.908559499999996,24.097881389203877
For rent,centrs,Eksporta 8,5,150.0,1.0,2.0,Jaun.,Masonry,All amenities,1700.0,56.956763,24.0954531
For rent,Vecmīlgrāvis,Emmas 19,2,48.0,4.0,5.0,LT proj.,Panel,All amenities,220.0,57.03004010000001,24.111049444536533
For rent,Grīziņkalns,Terēzes 2,1,30.0,1.0,3.0,Staļina,Masonry,All amenities,270.0,56.962474300000004,24.14928920430005
For sale,Ziepniekkalns,Valdeķu 54,3,62.0,8.0,9.0,602.,Panel,All amenities,75000.0,56.9094064,24.0954157
For sale,Pļavnieki,Dravnieku 13,3,64.0,7.0,9.0,602.,Panel,All amenities,59000.0,56.94404435,24.21522315
For sale,Ķengarags,Maskavas 260,2,47.0,4.0,5.0,LT proj.,Panel,All amenities,41000.0,56.8597884,24.3083417
For rent,Daugavgrīva,Zvīņu 6,1,28.0,3.0,5.0,LT proj.,Brick,All amenities,220.0,57.037465399999995,24.0247952
For sale,centrs,Valdemāra 89,3,104.0,5.0,5.0,P. kara,Masonry,All amenities,130000.0,56.96383885,24.125864667915483
For sale,Sarkandaugava,Limbažu 4/1,2,45.6,5.0,5.0,Hrušč.,Panel,All amenities,51500.0,57.000435499999995,24.120734699999996
For sale,Imanta,Dumbrāja 18,3,68.0,3.0,4.0,Jaun.,Panel,All amenities,110000.0,56.95698695,24.0186127580713
For rent,Purvciems,Vējavas 12,1,39.0,4.0,5.0,M. ģim.,Brick-Panel,All amenities,230.0,56.95697915,24.169464661675494
For sale,centrs,Čaka 33,2,47.0,6.0,7.0,Renov.,Masonry,All amenities,95000.0,56.9521436,24.1276865
For sale,Purvciems,Purvciema 26,3,79.0,9.0,9.0,119.,Panel,All amenities,71000.0,56.95343085,24.173465900000004
For rent,Ziepniekkalns,Ozolciema 32,2,50.0,8.0,9.0,602.,Panel,All amenities,270.0,56.89979805,24.098350150000005
For sale,Teika,Vidrižu 4,4,95.0,1.0,9.0,Specpr.,Brick-Panel,All amenities,85000.0,56.978867099999995,24.1774824079002
For rent,Ziepniekkalns,Vadakstes 1,2,47.0,1.0,1.0,Priv. m.,Masonry,All amenities,450.0,56.9135113,24.094025
For sale,Dzegužkalns,Jaunsaules 18,2,48.0,2.0,5.0,LT proj.,Panel,All amenities,42000.0,56.95476665,24.04792874999999
For rent,Pļavnieki,Ilūkstes 39,1,40.0,3.0,5.0,Specpr.,Brick-Panel,All amenities,300.0,56.93801605,24.19441854108878
For rent,centrs,Grostonas 17,3,88.0,7.0,7.0,Jaun.,Brick-Panel,All amenities,990.0,56.96998705,24.12421088272788
For rent,centrs,Brīvības 115,1,28.0,2.0,3.0,P. kara,Masonry,All amenities,220.0,56.96296630000001,24.13562495000001
For rent,centrs,Sapieru 3b,1,21.0,3.0,5.0,Jaun.,Panel,All amenities,340.0,56.96305770000001,24.1531056
For sale,Pļavnieki,Jasmuižas 13,4,75.0,3.0,8.0,467.,Panel,All amenities,69950.0,56.9367253,24.212928100000003
For rent,Pļavnieki,Jasmuižas 24,1,22.0,1.0,3.0,Jaun.,Panel,All amenities,235.0,56.93702645000001,24.215316510108853
For rent,centrs,Tērbatas 78,1,33.0,2.0,5.0,P. kara,Masonry,All amenities,315.0,56.961154099999995,24.1376555
For sale,Ziepniekkalns,Bērzlapu 2,2,57.0,3.0,16.0,104.,Panel,All amenities,70000.0,56.9052096,24.08455345086175
For rent,Zolitūde,Gramzdas 80,2,55.0,1.0,4.0,Jaun.,Panel,All amenities,500.0,56.94145735,24.00301883923461
For rent,Iļģuciems,Baltā 17,3,62.0,1.0,5.0,LT proj.,Panel,All amenities,350.0,56.96997710000001,24.065541014540702
For sale,Mežciems,Celmu 5,2,50.0,3.0,5.0,LT proj.,Panel,All amenities,49800.0,56.973635800000004,24.233530915029387
For sale,centrs,Brīvības iela 136,2,43.0,1.0,5.0,P. kara,Masonry,All amenities,48000.0,56.9636061,24.138865799999998
For rent,Ķengarags,Maskavas 381/7,2,49.0,3.0,3.0,Staļina,Brick,All amenities,240.0,56.944585100000005,24.1127805007715
For rent,Mežciems,Hipokrāta 41,1,32.0,8.0,9.0,602.,Panel,All amenities,260.0,56.9596666,24.236478297859165
For rent,Purvciems,Andromedas g. 12,2,51.0,3.0,5.0,LT proj.,Panel,All amenities,300.0,56.9604259,24.201209
For rent,Āgenskalns,Mūkusalas 29,2,79.0,4.0,4.0,Jaun.,Masonry,All amenities,850.0,56.93693955000001,24.10193236312368
For rent,Āgenskalns,Talsu 9,2,44.0,3.0,6.0,P. kara,Masonry,Partial amenities,280.0,56.9383464,24.071392000000003
For rent,Āgenskalns,Kalnciema 20,1,36.0,2.0,2.0,P. kara,Brick,All amenities,250.0,56.9384531,24.0507266
For rent,centrs,Sadovņikova 39a,1,30.0,3.0,5.0,P. kara,Brick,All amenities,260.0,56.94202370000001,24.135420241619396
For sale,Dārzciems,Stopiņu 12,1,37.0,1.0,1.0,Priv. m.,Brick,All amenities,22000.0,56.948532400000005,24.1730688
For rent,centrs,Vesetas 30,2,42.0,4.0,6.0,Hrušč.,Brick,All amenities,275.0,56.97172205,24.130130899999997
For rent,centrs,Sadovņikova 21,1,40.0,2.0,4.0,P. kara,Brick,All amenities,240.0,56.9421434,24.1326836
For sale,centrs,Vārnu 8,2,56.0,1.0,6.0,P. kara,Brick,All amenities,78800.0,56.95811035,24.148761165178566
For rent,centrs,Klusā 21,1,24.0,2.0,5.0,Renov.,Brick-Panel,All amenities,250.0,56.9758898,24.145391383510933
For rent,Bolderāja,Lemešu 9,1,34.0,1.0,9.0,602.,Panel,All amenities,190.0,57.033352799999996,24.055377249503106
For sale,Vecrīga,Kungu 25,3,138.0,3.0,6.0,Jaun.,Masonry,All amenities,275000.0,56.9453382,24.109463953308822
For rent,Ķengarags,Maskavas 313,1,38.0,8.0,12.0,Čehu pr.,Brick,All amenities,200.0,56.8597884,24.3083417
For sale,Zolitūde,Priedaines 13,1,56.0,1.0,4.0,Jaun.,Brick-Panel,All amenities,78000.0,56.94258129999999,24.01565897529245
For rent,centrs,Teātra 2,3,98.0,4.0,6.0,Jaun.,Brick,All amenities,1100.0,56.9481417,24.1115806
For rent,Vecrīga,Teātra 2,3,98.0,4.0,6.0,Jaun.,Brick,All amenities,1100.0,56.9481417,24.1115806
For rent,Āgenskalns,Valguma 35,2,40.0,1.0,5.0,Staļina,Brick,All amenities,390.0,56.94349035000001,24.09044395550173
For rent,centrs,Lugažu 14,1,30.0,1.0,3.0,Staļina,Brick,All amenities,270.0,56.97501495,24.106644609248
For sale,Daugavgrīva,Lēpju 13,2,54.0,3.0,5.0,103.,Brick-Panel,All amenities,34000.0,57.038959,24.022054838957786
For sale,Bieriņi,Spirgus 4,2,47.0,2.0,2.0,Renov.,Wood,All amenities,75000.0,56.921482700000006,24.069688199999998
For rent,centrs,Klijānu 12,2,32.0,1.0,3.0,Jaun.,Brick,All amenities,27.0,56.973195700000005,24.1490465
For rent,centrs,Vesetas 26,2,43.0,4.0,9.0,Jaun.,Panel-Brick,All amenities,50.0,56.962820900000004,24.1203782
For rent,centrs,Bruņinieku 72,1,49.0,3.0,3.0,Jaun.,Masonry,All amenities,550.0,56.9524426,24.138755914213892
For rent,Dārzciems,Nīcgales 52,1,35.0,2.0,5.0,103.,Brick,All amenities,250.0,56.950588399999994,24.173423899999996
For rent,Purvciems,Nīcgales 52,1,35.0,2.0,5.0,103.,Brick,All amenities,250.0,56.950588399999994,24.173423899999996
For sale,Purvciems,Nīcgales 4,2,50.0,4.0,9.0,602.,Panel,All amenities,59500.0,56.95855255,24.175316327579107
For rent,centrs,Dzirnavu 6,3,60.0,3.0,5.0,Renov.,Masonry,All amenities,700.0,56.9612002,24.107539410990753
For rent,centrs,Barona 28,3,93.0,5.0,5.0,P. kara,Masonry,All amenities,465.0,56.952144,24.1234383
For rent,centrs,Lāčplēša 70,3,85.0,3.0,5.0,P. kara,Brick,All amenities,600.0,56.9505257,24.1319905
For rent,Jugla,Brīvības gatve 365,2,40.0,1.0,5.0,Hrušč.,Brick,All amenities,280.0,56.98777415,24.219018050000006
For sale,centrs,Birznieka-Upīša 18a,3,70.0,3.0,7.0,Renov.,Masonry,All amenities,155000.0,56.9491897,24.1285
For sale,centrs,Rūdolfa 1,1,30.0,3.0,6.0,P. kara,Brick,All amenities,58000.0,56.9620224,24.15219394772615
For rent,centrs,Tomsona 30,2,55.0,5.0,9.0,Jaun.,Panel,All amenities,500.0,56.9665863,24.1282258
For rent,Jugla,Brīvības gatve 405/1,2,46.0,2.0,5.0,Hrušč.,Brick,All amenities,340.0,56.9730973,24.166072800000002
For sale,Berģi,Berģu 17,2,51.0,1.0,2.0,Jaun.,Masonry,All amenities,75900.0,56.999762399999994,24.276191100000002
For sale,Dzegužkalns,Lielezeres 10,3,65.0,5.0,5.0,Jaun.,Masonry,All amenities,94000.0,56.95924805,24.055202274196077
For sale,Dzegužkalns,Lielezeres 10,3,62.0,5.0,5.0,Jaun.,Masonry,All amenities,93150.0,56.95924805,24.055202274196077
For sale,Dzegužkalns,Lielezeres 10,3,85.0,5.0,5.0,Jaun.,Masonry,All amenities,117000.0,56.95924805,24.055202274196077
For sale,Dzegužkalns,Lielezeres 10,2,58.0,5.0,5.0,Jaun.,Masonry,All amenities,87000.0,56.95924805,24.055202274196077
For rent,Ziepniekkalns,Ozolciema 18,2,58.0,8.0,9.0,119.,Panel,All amenities,265.0,56.89859735,24.08767079999982
For sale,centrs,Lugažu 14,1,24.0,3.0,3.0,Staļina,Brick,All amenities,22500.0,56.97501495,24.106644609248
For rent,Ziepniekkalns,Graudu 13,4,223.0,2.0,2.0,Priv. m.,Brick-Panel,All amenities,1000.0,56.9088093,24.0913836
For sale,centrs,Klijānu 6,3,52.0,6.0,9.0,Jaun.,Panel-Brick,All amenities,79800.0,56.9726557,24.149311721285123
For rent,centrs,Lāčplēša 77,1,31.0,2.0,2.0,P. kara,Wood,All amenities,220.0,56.949693,24.133223367446323
For sale,Purvciems,Ieriķu 33,3,60.0,5.0,5.0,LT proj.,Panel,All amenities,55499.0,56.96662215,24.178668525371137
For sale,Ķengarags,Maskavas 250/6,3,60.0,2.0,5.0,LT proj.,Panel,All amenities,40000.0,56.887204000000004,24.233586399999997
For sale,Ķengarags,Lokomotīves 88,3,61.0,4.0,5.0,LT proj.,Panel,All amenities,49200.0,56.90193410000001,24.213842727808466
For rent,Purvciems,Dzelzavas 53,1,34.0,5.0,9.0,467.,Panel,All amenities,260.0,56.9571336,24.1909674
For sale,Mežciems,Kaivas 50/1,3,74.0,1.0,5.0,Jaun.,Brick-Panel,All amenities,92750.0,56.9541725,24.2443253
For sale,Mežciems,Kaivas 50/1,4,113.0,3.0,5.0,Jaun.,Brick-Panel,All amenities,141375.0,56.9541725,24.2443253
For sale,centrs,Valdemāra 37,3,78.0,4.0,6.0,Renov.,Masonry,All amenities,159732.0,56.958482,24.116858999999998
For rent,centrs,Stabu 94,3,97.0,6.0,6.0,Renov.,Masonry,All amenities,700.0,56.9499165,24.14129861229236
For sale,Pļavnieki,Dzeņu 8,1,41.0,3.0,5.0,M. ģim.,Panel,All amenities,30500.0,56.9396024,24.21101315
For sale,centrs,Blaumaņa 12,3,63.2,2.0,6.0,Renov.,Masonry,All amenities,164320.0,56.9548306,24.1221141
For sale,Zolitūde,Anniņmuižas 2 b,4,91.0,1.0,9.0,119.,Panel,All amenities,79500.0,56.957595700000006,24.0238997
For sale,Purvciems,Ūnijas 32,1,13.0,1.0,2.0,P. kara,Wood,All amenities,12500.0,56.9668361,24.1732945
For rent,centrs,Marijas 20,4,114.0,4.0,5.0,P. kara,Masonry,All amenities,250.0,56.950781799999994,24.126179500000003
For rent,Ziepniekkalns,Ozolciema 24,1,43.0,3.0,10.0,119.,Brick-Panel,All amenities,270.0,56.89930985,24.08899606834137
For rent,Mežciems,Hipokrāta 13,1,45.0,3.0,16.0,104.,Brick-Panel,All amenities,300.0,56.96683855000001,24.23704669319521
For rent,Pļavnieki,Dzeņu 8,1,40.0,4.0,5.0,M. ģim.,Panel,All amenities,260.0,56.9396024,24.21101315
For sale,Ķengarags,Lokomotīves 46,2,39.0,2.0,5.0,LT proj.,Brick-Panel,All amenities,30000.0,56.90929355,24.20023458271737
For rent,Ziepniekkalns,Valdeķu 62,1,38.0,3.0,9.0,Specpr.,Brick,All amenities,350.0,56.90102635,24.093994112790323
For rent,centrs,Cēsu 41,2,40.0,2.0,2.0,P. kara,Wood,All amenities,280.0,56.96656595,24.143643899999997
For rent,Purvciems,Dudajeva g. 5,1,28.0,3.0,5.0,LT proj.,Brick-Panel,All amenities,235.0,56.9570069,24.198736800000002
For sale,Brekši,Biķernieku 218,3,66.0,2.0,5.0,103.,Brick-Panel,All amenities,43000.0,56.95765645,24.29116442484242
For sale,Jugla,Silciema 5,3,58.0,2.0,5.0,Hrušč.,Panel,All amenities,45000.0,56.988253500000006,24.237895432886905
For rent,centrs,Klijānu 6,1,14.0,5.0,9.0,Jaun.,Panel-Brick,All amenities,199.0,56.9726557,24.149311721285123
For sale,centrs,Pērnavas 43,3,54.0,3.0,6.0,P. kara,Brick,Partial amenities,51300.0,56.954919,24.153655399999998
For sale,Mežciems,Kaivas 50/1,2,64.0,2.0,5.0,Jaun.,Brick-Panel,All amenities,79500.0,56.9541725,24.2443253
For rent,centrs,Matīsa 41,1,22.0,1.0,2.0,Jaun.,Wood,All amenities,30.0,56.9554529,24.1371051
For rent,centrs,Matīsa 46,1,17.0,3.0,5.0,Jaun.,Masonry,All amenities,25.0,56.9549083,24.1376122
For rent,Iļģuciems,Motoru 3,1,25.0,5.0,5.0,M. ģim.,Brick,All amenities,230.0,56.96949175,24.068099258351896
For rent,centrs,Barona 24/26,1,22.0,6.0,6.0,Renov.,Masonry,All amenities,480.0,56.95161295,24.12245714786153
For rent,Ziepniekkalns,Ozolciema 30,1,40.0,6.0,9.0,M. ģim.,Panel,All amenities,280.0,56.89981695,24.096533733538518
For sale,centrs,Zvaigžņu 24,2,29.0,3.0,7.0,P. kara,Masonry,All amenities,44900.0,56.9607411,24.1497716
For sale,Teika,Bērzpils 1,2,45.0,1.0,5.0,Hrušč.,Brick,All amenities,37000.0,56.97918625,24.1706639381423
For sale,Mežciems,Hipokrāta 17,3,62.0,6.0,9.0,602.,Panel,All amenities,61000.0,56.96614945,24.23733307860186
For rent,centrs,Cēsu 5,2,48.0,3.0,6.0,P. kara,Masonry,All amenities,450.0,56.964265100000006,24.1370086
For rent,centrs,Valdemāra 53,1,19.0,3.0,5.0,P. kara,Masonry,All amenities,120.0,56.95962049999999,24.1190117
For sale,Āgenskalns,Kuldīgas 10,1,21.0,2.0,2.0,Specpr.,Wood,Partial amenities,11700.0,56.951762800000004,24.067348709240818
For rent,Āgenskalns,Tukuma 3,1,24.0,2.0,3.0,P. kara,Panel-Brick,All amenities,200.0,56.697559899999995,23.1472299
For sale,Teika,Apes 5,2,46.0,1.0,5.0,Specpr.,Brick,All amenities,44300.0,56.97749205,24.17449723629064
For sale,Āgenskalns,Gregora 8,1,33.0,5.0,9.0,467.,Panel,All amenities,38000.0,56.94528149999999,24.051249567378232
For sale,Dzegužkalns,Daugavgrīvas 74a,1,21.0,7.0,9.0,Specpr.,Brick,All amenities,27500.0,56.95845485,24.069391909366622
For sale,Ziepniekkalns,Ozolciema 32,1,32.0,9.0,9.0,602.,Panel,All amenities,32500.0,56.89979805,24.098350150000005
For sale,Purvciems,Ilūkstes 467,1,32.0,4.0,9.0,467.,Panel,All amenities,32000.0,56.94058670000001,24.1951866
For sale,Purvciems,Dzelzavas 79,4,75.0,6.0,9.0,467.,Panel,All amenities,65000.0,56.95684165,24.200512350000004
For rent,Pļavnieki,Salnas 34,2,48.0,2.0,9.0,602.,Panel,All amenities,230.0,56.94177975,24.22918878598032
For sale,Ziepniekkalns,Līvciema 9,3,75.0,3.0,7.0,Specpr.,Panel,All amenities,78000.0,56.909571850000006,24.097641602805066
For sale,Āgenskalns,Kuldīgas 10,1,17.0,2.0,2.0,Specpr.,Wood,Partial amenities,10000.0,56.951762800000004,24.067348709240818
For rent,centrs,Lāčplēša 123,3,57.0,6.0,6.0,Jaun.,Masonry,All amenities,670.0,56.9439656,24.132989499999997
For rent,Teika,Burtnieku 35,1,18.0,3.0,5.0,M. ģim.,Brick,All amenities,200.0,56.96760975,24.181353900357145
For sale,centrs,Tomsona 23,3,58.0,2.0,5.0,Hrušč.,Brick,All amenities,73000.0,56.96530735,24.126257892770166
For sale,Imanta,Kurzemes pr. 68,2,39.0,3.0,5.0,LT proj.,Panel,All amenities,34900.0,56.9567829,24.0344957
For rent,centrs,Tērbatas 26,2,52.0,4.0,4.0,P. kara,Brick,All amenities,400.0,56.954519700000006,24.123251800000002
For sale,Iļģuciems,Lilijas 22,3,84.0,2.0,4.0,Jaun.,Brick-Panel,All amenities,145000.0,56.96504035,24.06178179173675
For sale,Imanta,Dumbrāja 18,3,68.0,3.0,4.0,Jaun.,Panel-Brick,All amenities,110000.0,56.95698695,24.0186127580713
For sale,Iļģuciems,Saulgožu 19,2,43.0,3.0,5.0,Hrušč.,Masonry,All amenities,35000.0,56.967820700000004,24.048427383041396
For sale,centrs,Ganu 4,5,145.0,4.0,5.0,P. kara,Masonry,All amenities,220000.0,56.96145915,24.109292804099898
For sale,Krasta r-ns,Rītupes 28,3,59.0,9.0,9.0,467.,Panel,All amenities,58500.0,56.9281595,24.1723166
For sale,Sarkandaugava,Sofijas 4,1,26.0,2.0,5.0,Hrušč.,Brick,All amenities,29800.0,56.99858605,24.120879239275123
For sale,Iļģuciems,Motoru 7,1,27.0,1.0,5.0,LT proj.,Panel,All amenities,32000.0,56.97008835,24.066817583075586
For rent,Mangaļi,Carnikavas 3c,1,24.0,1.0,1.0,Specpr.,Brick,All amenities,195.0,57.0237089,24.128180100000005
For rent,Zolitūde,Gramzdas 19,2,60.0,9.0,5.0,119.,Panel,All amenities,300.0,56.94351315,24.007624426696854
For sale,Daugavgrīva,Birzes 42,2,53.0,5.0,5.0,103.,Brick-Panel,All amenities,34980.0,57.03644015,24.02766502475527
For sale,Mežciems,Hipokrāta 11,1,46.0,8.0,16.0,104.,Panel,All amenities,45000.0,56.96714889999999,24.237550902552748
For rent,centrs,Maskavas 50,3,70.0,2.0,3.0,P. kara,Masonry,All amenities,410.0,56.8597884,24.3083417
For sale,centrs,Barona 25,4,99.0,6.0,6.0,P. kara,Brick,Partial amenities,95000.0,56.95275039999999,24.124026
For rent,centrs,Matīsa 85,2,48.0,1.0,4.0,P. kara,Masonry,All amenities,450.0,56.9526541,24.143315700000002
For rent,Ķengarags,Krustpils 123a,1,19.0,1.0,1.0,Renov.,Brick,All amenities,192.0,56.92936360000001,24.1835723
For sale,Purvciems,Purvciema 13,1,46.0,8.0,12.0,104.,Panel,All amenities,52000.0,56.95341415,24.1672841
For rent,Imanta,Dubultu 20,2,39.0,3.0,5.0,LT proj.,Panel,All amenities,230.0,56.95841805000001,24.005962909206254
For sale,centrs,Avotu 4,1,23.0,2.0,5.0,Renov.,Masonry,All amenities,38500.0,56.95081629999999,24.1271389
For sale,Vecmīlgrāvis,Melīdas 1/15,2,52.0,5.0,5.0,LT proj.,Panel,All amenities,33000.0,57.0326345,24.1122608
For sale,centrs,Avotu 4,2,41.0,2.0,5.0,Renov.,Brick,All amenities,53500.0,56.95081629999999,24.1271389
For rent,centrs,Stabu 102,1,12.0,5.0,5.0,P. kara,Brick,All amenities,115.0,56.94937815,24.14241401828672
For rent,Jugla,Juglas 3,1,38.0,8.0,12.0,Specpr.,Brick,All amenities,180.0,56.98820105,24.24322393920022
For rent,Āgenskalns,Valentīna 16,3,70.0,1.0,1.0,Jaun.,Brick,All amenities,735.0,56.94107515,24.053728946890434
For rent,Imanta,Anniņmuižas iela 28,2,60.0,11.0,16.0,Specpr.,Brick,All amenities,330.0,56.94940989999999,24.010272699999998
For sale,Purvciems,Nīcgales 21,3,59.0,1.0,5.0,LT proj.,Panel,All amenities,53500.0,56.95508155,24.1768222238815
For sale,Imanta,Kleistu 8,3,67.0,2.0,5.0,LT proj.,Panel,Partial amenities,58000.0,56.96056895,24.02284250000001
For sale,centrs,Stabu 18a,4,138.0,3.0,5.0,P. kara,Masonry,All amenities,199000.0,56.9599606,24.120976300000002
For sale,centrs,Barona 14,2,47.0,2.0,5.0,Renov.,Masonry,All amenities,147000.0,56.9506147,24.121231299999998
For sale,Āgenskalns,Slokas 13a,4,88.0,2.0,4.0,P. kara,Brick,All amenities,105000.0,56.944821999999995,24.074874985343733
For rent,Āgenskalns,Talsu 42,1,25.0,3.0,5.0,P. kara,Masonry,Partial amenities,200.0,56.9376655,24.0718085
For sale,Pļavnieki,Saharova 27,3,73.0,4.0,16.0,Specpr.,Masonry,All amenities,89000.0,56.941385700000005,24.2040933
For sale,centrs,Artilērijas 35b,3,73.0,4.0,4.0,Renov.,Masonry,All amenities,135000.0,56.9607774,24.1360568
For sale,centrs,Artilērijas 35b,2,52.0,3.0,4.0,Renov.,Masonry,All amenities,90000.0,56.9607774,24.1360568
For rent,Ziepniekkalns,Ozolciema 21/1,2,55.0,10.0,10.0,119.,Panel-Brick,All amenities,330.0,56.899030700000004,24.078598899999996
For sale,Imanta,Vīksnes 21,4,125.0,5.0,7.0,Jaun.,Brick-Panel,All amenities,210000.0,56.95789295,24.00103547044425
For sale,Pļavnieki,Slāvu 13,3,67.0,7.0,9.0,602.,Brick-Panel,All amenities,65000.0,56.93072539999999,24.181101
For rent,centrs,Grēcinieku 24,3,142.0,4.0,7.0,P. kara,Brick-Panel,All amenities,1450.0,56.9466833,24.107713399999998
For rent,centrs,Čaka 33,2,40.0,4.0,6.0,P. kara,Brick,All amenities,395.0,56.9521436,24.1276865
For rent,centrs,Upes 2a,1,34.0,5.0,5.0,Specpr.,Panel-Brick,All amenities,300.0,56.97594855,24.137672196112753
For rent,centrs,Brīvības 103,Citi,300.0,4.0,5.0,Specpr.,Masonry,All amenities,350.0,56.9614331,24.1331108
For sale,Brekši,Juglasciema b. 54,2,56.0,2.0,2.0,Jaun.,Masonry,All amenities,83800.0,56.971791,24.317922699999997
For rent,Āgenskalns,Raņķa d. 34,3,109.0,8.0,23.0,Jaun.,Panel,All amenities,1200.0,56.948307400000004,24.080146799999998
For rent,Ķīpsala,Ogļu 32,3,80.0,1.0,4.0,Renov.,Masonry,All amenities,1200.0,56.9608406,24.081764791335797
For sale,Ķīpsala,Ogļu 30,3,104.0,2.0,2.0,Jaun.,Masonry,All amenities,320000.0,56.9606804,24.08183636276761
For rent,centrs,Stabu 16,5,250.0,4.0,6.0,Renov.,Masonry,All amenities,2500.0,56.9575649,24.12539997906137
For sale,centrs,Blaumaņa 21,2,80.0,1.0,7.0,P. kara,Masonry,All amenities,141000.0,56.95264935,24.125906961191163
For sale,centrs,Šarlotes 7,2,33.0,3.0,7.0,Jaun.,Brick-Panel,All amenities,80000.0,56.964586100000005,24.128632500000002
For sale,centrs,Zvaigžņu 24,3,72.4,2.0,6.0,Specpr.,Brick,All amenities,85000.0,56.9607411,24.1497716
For rent,centrs,Rūpniecības 22,3,98.0,6.0,7.0,Specpr.,Brick,All amenities,750.0,56.96134855,24.10363556619328
For rent,Jugla,Vidzemes al. 1,2,48.0,8.0,12.0,Čehu pr.,Brick-Panel,All amenities,320.0,56.99359675,24.242844166237113
For rent,centrs,Krāsotāju 6,3,95.0,4.0,5.0,Jaun.,Masonry,All amenities,550.0,56.95391115,24.143153899999994
For sale,centrs,Elizabetes 57a,3,167.0,1.0,7.0,Renov.,Brick-Panel,Without amenities,19999.0,56.9540264,24.119133486635636
For sale,Jugla,Juglas 23-18,2,45.0,5.0,5.0,Hrušč.,Panel,All amenities,29999.0,56.9761694,24.2544503
For rent,centrs,Sadovņikova 47,1,19.0,3.0,5.0,P. kara,Brick,Partial amenities,180.0,56.940855500000005,24.1364923
For rent,Krasta r-ns,Salacas 1,1,36.0,3.0,4.0,Renov.,Brick-Panel,All amenities,55.0,56.93045135,24.168588440214645
For rent,Krasta r-ns,Salacas 1,1,23.0,1.0,4.0,Renov.,Brick,All amenities,220.0,56.93045135,24.168588440214645
For sale,centrs,Birznieka-Upīša 10,3,71.0,2.0,5.0,Renov.,Masonry,All amenities,159750.0,56.9488745,24.12660274460919
For rent,Āgenskalns,Mūkusalas 25,2,49.0,3.0,6.0,Jaun.,Panel-Brick,All amenities,650.0,56.93740390000001,24.10117626311409
For sale,Vecrīga,Peitavas 5,3,91.0,3.0,5.0,P. kara,Masonry,All amenities,164000.0,56.9462191,24.1099153
For sale,Imanta,Dammes 13,2,50.0,1.0,9.0,602.,Panel,All amenities,41700.0,56.9618014,24.010691273060154
For sale,Zolitūde,Gramzdas 80,4,176.0,4.0,4.0,Jaun.,Brick-Panel,All amenities,168000.0,56.94145735,24.00301883923461
For rent,centrs,Terēzes 8,1,28.0,2.0,5.0,Renov.,Brick,All amenities,260.0,56.961958200000005,24.15009284450676
For sale,centrs,Bruņinieku 68a,2,45.0,2.0,4.0,P. kara,Brick,All amenities,43500.0,56.952567,24.137888399999998
For rent,Imanta,Anniņmuižas bulvāris 41,3,95.0,18.0,24.0,Jaun.,Panel-Brick,All amenities,550.0,56.95959205,24.014752249921976
For rent,Imanta,Anniņmuižas bulvāris 41,3,96.0,6.0,24.0,Jaun.,Panel-Brick,All amenities,550.0,56.95959205,24.014752249921976
For sale,Āgenskalns,Mūkusalas 25,4,170.0,5.0,6.0,Jaun.,Masonry,All amenities,270000.0,56.93740390000001,24.10117626311409
For sale,Purvciems,Pūces 45,3,95.0,6.0,7.0,Jaun.,Masonry,All amenities,148000.0,56.952728500000006,24.19079871060433
For rent,Maskavas priekšpilsēta,Daugavpils 8,1,15.0,1.0,2.0,P. kara,Wood,All amenities,150.0,56.939892500000006,24.14141985484498
For rent,Iļģuciems,Stūres 2,1,18.0,2.0,5.0,M. ģim.,Panel,Partial amenities,70.0,56.969220299999996,24.069493731814195
For sale,centrs,Ausekļa 8,2,53.0,5.0,6.0,Specpr.,Brick-Panel,All amenities,107000.0,56.960680599999996,24.1003622
For sale,Ziepniekkalns,Graudu 29,4,109.0,3.0,4.0,Jaun.,Masonry,All amenities,185300.0,56.91000915,24.099144301381912
For sale,Āgenskalns,Lielirbes 13,2,67.0,9.0,30.0,Jaun.,Masonry,All amenities,99875.0,56.933499600000005,24.0424848
For sale,centrs,Avotu 4,2,34.8,2.0,5.0,Renov.,Masonry,All amenities,59000.0,56.95081629999999,24.1271389
For rent,Mežciems,Kaivas 50,1,35.0,5.0,5.0,Jaun.,Panel-Brick,All amenities,300.0,56.95546705,24.24181865
For rent,Bolderāja,Gobas 29,2,60.0,4.0,5.0,Specpr.,Brick,All amenities,220.0,57.03086935,24.05388700410905
For sale,centrs,Barona 14,2,40.3,5.0,5.0,Renov.,Masonry,All amenities,79000.0,56.9506147,24.121231299999998
For sale,centrs,Barona 14,2,35.0,4.0,5.0,Renov.,Masonry,All amenities,69000.0,56.9506147,24.121231299999998
For sale,Āgenskalns,Kalnciema 57,2,52.0,4.0,4.0,Staļina,Masonry,All amenities,55000.0,56.94119075,24.058680141169287
For sale,Vecrīga,Laipu 6,1,25.0,3.0,5.0,P. kara,Masonry,All amenities,82500.0,56.949025799999994,24.108235248673573
For rent,centrs,Čaka 143,3,75.0,4.0,5.0,P. kara,Masonry,Partial amenities,480.0,56.9643579,24.1513733
For rent,Ziepniekkalns,Ozolciema 12/2,2,59.0,9.0,9.0,119.,Panel,All amenities,320.0,56.899030700000004,24.078598899999996
For sale,centrs,Lugažu 4,2,45.0,1.0,5.0,LT proj.,Panel,All amenities,49500.0,56.97475175,24.10917940000001
For rent,Ķengarags,Prūšu 15,2,39.0,3.0,5.0,LT proj.,Panel,All amenities,220.0,56.91320129999999,24.189901450000008
For rent,Iļģuciems,Lilijas 9,3,54.0,4.0,5.0,Hrušč.,Brick,All amenities,400.0,56.9643785,24.0675921
For sale,centrs,Brīvības 30,3,82.0,4.0,4.0,P. kara,Masonry,All amenities,170000.0,56.9520463,24.11476
For sale,Vecrīga,Laipu 6,2,48.0,2.0,4.0,Renov.,Masonry,All amenities,130000.0,56.949025799999994,24.108235248673573
For rent,centrs,Kalniņa 6,1,56.0,1.0,5.0,Renov.,Masonry,All amenities,50.0,56.9496478,24.120821799999998
For sale,Bolderāja,Gobas 28,3,67.0,5.0,5.0,103.,Brick-Panel,All amenities,49900.0,57.02771755,24.05580097972616
For sale,Ķengarags,Maskavas 238,4,140.0,2.0,7.0,Jaun.,Brick-Panel,All amenities,155000.0,56.8597884,24.3083417
For sale,Krasta r-ns,Ogres 5,4,140.0,2.0,7.0,Jaun.,Brick-Panel,All amenities,155000.0,56.92735995,24.164623665228792
For sale,Jugla,Kvēles 15/15,3,59.0,3.0,5.0,LT proj.,Panel,All amenities,62000.0,56.9816726,24.2465564
For rent,Purvciems,Stirnu 53,1,30.0,3.0,5.0,LT proj.,Panel,All amenities,300.0,56.9636426,24.19365476584691
For rent,centrs,Stabu 15,2,55.0,2.0,5.0,Staļina,Brick,All amenities,520.0,56.9587074,24.123774899999997
For rent,centrs,Matīsa 69a,2,62.0,4.0,7.0,Jaun.,Brick,All amenities,650.0,56.9581178,24.1311146
For sale,centrs,Lāčplēša 125,1,32.0,4.0,5.0,Renov.,Brick,All amenities,34900.0,56.943900199999995,24.1325617
For sale,Vecmīlgrāvis,Sniega 2,3,55.0,5.0,5.0,LT proj.,Panel,All amenities,43000.0,57.0337701,24.09840055
For sale,centrs,Tērbatas 60,4,94.0,4.0,5.0,P. kara,Masonry,All amenities,115000.0,56.9561495,24.126437799999998
For sale,Maskavas priekšpilsēta,Daugavpils 76,1,25.0,6.0,5.0,P. kara,Brick,All amenities,23000.0,56.9464309,24.14139621313611
For sale,centrs,Blaumaņa 9,4,105.0,4.0,6.0,Renov.,Masonry,All amenities,129360.0,56.953925600000005,24.1237609
For sale,centrs,Blaumaņa 9,Citi,287.0,5.0,6.0,Renov.,Brick,All amenities,298544.0,56.953925600000005,24.1237609
For sale,Pļavnieki,Ilūkstes 41,2,60.0,2.0,2.0,Priv. m.,Masonry,All amenities,45000.0,56.93857315,24.194416215790003
For sale,centrs,Blaumaņa 9,1,33.0,1.0,6.0,Renov.,Masonry,All amenities,43956.0,56.953925600000005,24.1237609
For sale,centrs,Avotu 4,1,21.0,2.0,5.0,Renov.,Masonry,All amenities,37500.0,56.95081629999999,24.1271389
For sale,Ziepniekkalns,Ozolciema 18,1,46.0,2.0,9.0,119.,Panel,All amenities,45000.0,56.89859735,24.08767079999982
For rent,Iļģuciems,Sniķeres 24,1,27.0,1.0,1.0,Priv. m.,Wood,All amenities,25.0,56.96885415,24.04099955
For sale,centrs,Blaumaņa 9,4,74.0,1.0,6.0,Renov.,Masonry,All amenities,87961.0,56.953925600000005,24.1237609
For rent,centrs,Ģertrūdes 50,2,45.0,6.0,6.0,P. kara,Masonry,All amenities,470.0,56.9524681,24.131084304339968
For sale,Šķirotava,Gravas 17,2,44.0,4.0,5.0,Jaun.,Panel-Brick,All amenities,53000.0,56.9051509,24.229588797755518
For rent,Bolderāja,Dolomīta 2,1,32.0,5.0,5.0,Hrušč.,Brick,All amenities,190.0,57.0264399,24.039197100000003
For rent,Bolderāja,Stagaru 4,1,38.0,4.0,5.0,M. ģim.,Brick-Panel,Partial amenities,140.0,57.02965155,24.035975194523694
For rent,Mežciems,Mežciema 23,1,49.0,2.0,16.0,104.,Panel,All amenities,280.0,56.971605000000004,24.2340818
For rent,Grīziņkalns,Alauksta 9,1,45.0,4.0,6.0,Jaun.,Brick-Panel,All amenities,400.0,56.9610476,24.149369490567484
For sale,Āgenskalns,Kuldīgas 45,1,20.0,2.0,3.0,P. kara,Wood,All amenities,14500.0,56.94521285,24.0558636462604
For sale,Daugavgrīva,Parādes 22,2,41.0,3.0,5.0,Hrušč.,Masonry,All amenities,41900.0,57.03948115,24.0254633
For rent,centrs,Ģertrūdes 81,1,45.0,2.0,3.0,Jaun.,Brick,All amenities,380.0,56.9509613,24.134607100000004
For rent,Āgenskalns,Lielirbes 13,3,90.0,15.0,30.0,Jaun.,Masonry,All amenities,650.0,56.933499600000005,24.0424848
For sale,centrs,Brīvības iela 165,2,61.0,3.0,5.0,Staļina,Masonry,All amenities,80000.0,56.96689285,24.146216338571435
For sale,Teika,Ķeguma 43,1,43.0,3.0,5.0,M. ģim.,Panel,All amenities,46200.0,56.96378645,24.19618744948581
For sale,Ziepniekkalns,Ozolciema 48,1,45.0,3.0,9.0,M. ģim.,Panel,All amenities,40700.0,56.90048705,24.100607425766412
For sale,centrs,Stabu 46,3,74.0,3.0,6.0,P. kara,Masonry,All amenities,135000.0,56.9543322,24.1313043698515
For sale,centrs,Artilērijas 3,2,46.0,3.0,5.0,P. kara,Masonry,All amenities,49000.0,56.96127015,24.13542191631238
For rent,centrs,Blaumaņa 56,2,64.0,5.0,6.0,P. kara,Masonry,All amenities,450.0,56.955454700000004,24.1216183
For rent,Ziepniekkalns,Stērstu 22,2,40.0,1.0,2.0,Specpr.,Masonry,Partial amenities,220.0,56.913591700000005,24.1141275
For rent,centrs,Miera 93,3,89.0,6.0,6.0,Jaun.,Panel,All amenities,750.0,56.9704076,24.137787399999997
For sale,centrs,Kalniņa 1,1,27.0,5.0,5.0,Renov.,Masonry,All amenities,59990.0,56.949245999999995,24.12082191615919
For sale,centrs,Ganību d. 13,2,46.0,5.0,5.0,103.,Brick-Panel,All amenities,56800.0,56.9928319,24.1224521
For rent,Teika,Brīvības gatve 404,1,30.0,2.0,12.0,Čehu pr.,Brick,All amenities,300.0,56.987477,24.2280819
For rent,Jugla,Brīvības gatve 404,1,30.0,2.0,12.0,Čehu pr.,Brick,All amenities,300.0,56.987477,24.2280819
For rent,centrs,Čaka 59,3,85.0,5.0,5.0,P. kara,Brick,All amenities,500.0,56.955338899999994,24.1342842
For sale,Mežciems,Biķernieku 242,2,42.0,2.0,2.0,P. kara,Wood,All amenities,37500.0,56.9593644,24.29816964999999
For sale,Teika,Brīvības gatve 209,4,117.0,5.0,5.0,P. kara,Brick,All amenities,82000.0,56.97452760000001,24.170114897297303
For rent,Zolitūde,Augšzemes 5,2,57.0,3.0,4.0,Jaun.,Panel,All amenities,550.0,56.94414285,24.02350542614048
For sale,Klīversala,Kuģu 26,3,60.0,3.0,5.0,Jaun.,Brick-Panel,All amenities,120000.0,56.94553165,24.09232737837809
For rent,centrs,Čaka 143,2,58.0,4.0,5.0,P. kara,Brick-Panel,All amenities,425.0,56.9643579,24.1513733
For sale,centrs,Zvaigžņu 31,1,20.0,1.0,2.0,P. kara,Masonry,Partial amenities,8100.0,56.96171700000001,24.150649763157894
For sale,centrs,Blaumaņa 8,3,107.0,5.0,5.0,P. kara,Brick,All amenities,265000.0,56.95523395,24.12155999229823
For sale,Iļģuciems,Reņģes 70 k2,2,45.0,1.0,3.0,Hrušč.,Brick,All amenities,36000.0,56.965796600000004,24.0629937
For rent,Maskavas priekšpilsēta,Jēkabpils 9,1,25.0,3.0,3.0,Renov.,Masonry,All amenities,290.0,56.94284855,24.133753153151865
For rent,Mežciems,Hipokrāta 11,1,45.0,12.0,16.0,104.,Panel,All amenities,270.0,56.96714889999999,24.237550902552748
For rent,Zolitūde,Ruses 26,3,77.0,2.0,9.0,119.,Panel,All amenities,420.0,56.9454805,24.009710100000003
For sale,Dzegužkalns,Dzegužu 1,2,41.0,3.0,3.0,Hrušč.,Masonry,All amenities,38000.0,56.95863035,24.062260503177363
For sale,Ziepniekkalns,Komētas 18,4,140.0,4.0,4.0,Jaun.,Panel,All amenities,228000.0,56.91406475,24.126730620738968
For sale,centrs,Čaka 52/2,4,137.0,3.0,5.0,P. kara,Masonry,All amenities,149000.0,56.9626863,24.148058399999996
For sale,Pļavnieki,Jasmuižas 22,4,118.0,1.0,3.0,Jaun.,Brick-Panel,All amenities,199000.0,56.93715885,24.21463304292045
For rent,centrs,Matīsa 35,3,63.0,3.0,5.0,Renov.,Masonry,All amenities,630.0,56.95629175,24.135354550841228
For sale,Ķengarags,Salaspils 16b,3,75.0,6.0,12.0,Čehu pr.,Brick,All amenities,67000.0,56.91941965,24.183866848156942
For sale,Vecrīga,Mārstaļu 16,3,101.0,3.0,6.0,Renov.,Masonry,All amenities,220000.0,56.945174699999995,24.1075711
For sale,centrs,Barona 60,1,43.0,3.0,3.0,P. kara,Wood,All amenities,45000.0,56.9550189,24.1293006
For rent,Ķengarags,Aviācijas 23,1,35.0,6.0,12.0,LT proj.,Brick,All amenities,190.0,56.9039208,24.200381481428572
For rent,Teika,Zemgala gatve 52,3,55.0,1.0,1.0,Priv. m.,Masonry,All amenities,500.0,56.9713309,24.16834350282152
For rent,Jugla,Vangažu 11,1,32.0,4.0,12.0,M. ģim.,Brick,All amenities,250.0,56.9871472,24.22863905462379
For sale,Maskavas priekšpilsēta,Daugavpils 8,4,95.0,1.0,2.0,Specpr.,Wood,All amenities,29790.0,56.939892500000006,24.14141985484498
For sale,Āgenskalns,Melnsila 14,3,64.0,2.0,4.0,Renov.,Wood,All amenities,102000.0,56.94402935,24.066639316070557
For sale,Purvciems,Ilūkstes 109,1,37.0,1.0,9.0,467.,Panel,All amenities,32000.0,56.95435629999999,24.19854765
For rent,centrs,Lāčplēša 18,1,25.0,5.0,5.0,P. kara,Masonry,All amenities,600.0,56.95538345,24.122809649188017
For sale,Pļavnieki,Pavasara g. 1,3,63.0,2.0,9.0,602.,Panel,All amenities,67500.0,56.9346184,24.1980807
For sale,Imanta,Dammes 4,2,49.0,2.0,9.0,602.,Panel,All amenities,50000.0,56.96173835000001,24.01580175000001
For sale,Iļģuciems,Daugavgrīvas 55,3,48.0,1.0,2.0,P. kara,Wood,Partial amenities,32000.0,56.95813570000001,24.071163460238203
For rent,Ķengarags,Pelnu 2,2,49.0,5.0,5.0,LT proj.,Brick-Panel,All amenities,250.0,56.90746470000001,24.200397949999992
For sale,Bolderāja,Mežrozīšu 5,2,37.0,1.0,2.0,Specpr.,Wood,Partial amenities,12980.0,57.031881000000006,24.046514600000002
For sale,Jaunciems,Jaunciema g. 167,1,24.0,1.0,2.0,P. kara,Wood,Partial amenities,7380.0,57.04008520000001,24.1123471
For rent,Zolitūde,Rostokas 4,2,58.0,2.0,9.0,119.,Panel,All amenities,280.0,54.14361,12.05044145
For sale,Dzegužkalns,Kuldīgas 10,1,18.0,2.0,2.0,Specpr.,Wood,Partial amenities,11590.0,56.951762800000004,24.067348709240818
For sale,Iļģuciems,Viļņas 3,1,52.0,2.0,2.0,P. kara,Wood,Partial amenities,14690.0,56.96260805,24.0659372
For sale,Sarkandaugava,Ceļinieku 12,1,15.0,2.0,3.0,P. kara,Masonry,Partial amenities,5360.0,56.99682205000001,24.12806361327168
For sale,Vecmīlgrāvis,Meldru 6,2,43.0,2.0,5.0,Hrušč.,Brick,All amenities,26500.0,57.02846205,24.102091273219237
For sale,Torņakalns,Konrāda 9,3,41.0,2.0,2.0,P. kara,Wood,Partial amenities,24890.0,56.92624755,24.096309807853817
For sale,Šķirotava,Malēju 4a,1,18.0,3.0,4.0,Specpr.,Brick,All amenities,6490.0,56.90687475,24.220915782229994
For sale,Vecmīlgrāvis,Mildas 4a,2,46.0,1.0,2.0,Staļina,Masonry,All amenities,18900.0,57.02687935,24.1111013
For rent,centrs,Barona 21,2,50.0,4.0,4.0,P. kara,Brick,All amenities,430.0,56.95257120000001,24.1236797
For rent,Pļavnieki,Saharova 7,1,43.0,6.0,9.0,M. ģim.,Panel,All amenities,270.0,56.93515745,24.200200711641088
For sale,Ziepniekkalns,Valdeķu 53,3,75.0,9.0,10.0,119.,Panel,Without amenities,70000.0,56.90154795,24.092467407342486
For sale,Vecmīlgrāvis,Emmas 28,2,36.0,3.0,4.0,Jaun.,Brick-Panel,All amenities,43500.0,57.03179875,24.116664434629
For sale,Maskavas priekšpilsēta,Jersikas 37,1,39.0,2.0,4.0,P. kara,Masonry,All amenities,41000.0,56.938653599999995,24.147409993253735
For rent,Maskavas priekšpilsēta,Maskavas 68,1,25.0,4.0,6.0,P. kara,Masonry,Partial amenities,125.0,56.8597884,24.3083417
For sale,centrs,Hospitāļu 38,4,139.0,6.0,6.0,Renov.,Masonry,All amenities,259000.0,56.9750706,24.138670758867068
For sale,centrs,Blaumaņa 12,2,43.0,1.0,6.0,Renov.,Masonry,All amenities,104370.0,56.9548306,24.1221141
For sale,Ziepniekkalns,Valdeķu 54,2,50.0,1.0,9.0,602.,Panel,All amenities,45000.0,56.9094064,24.0954157
For sale,Ķengarags,Maskavas 256,3,60.0,5.0,5.0,LT proj.,Panel,All amenities,54500.0,56.8597884,24.3083417
For sale,Vecrīga,Vāgnera 12,2,34.0,3.0,4.0,P. kara,Masonry,All amenities,59900.0,56.94881585,24.111473859108518
For sale,Jugla,Ciemupes 1,5,217.0,9.0,10.0,Jaun.,Panel-Brick,All amenities,175000.0,56.9879953,24.246103566391607
For rent,centrs,Stabu 111,1,30.0,1.0,5.0,P. kara,Brick,All amenities,300.0,56.9496784,24.142522262001
For rent,Sarkandaugava,Hāpsalas 1/1,2,64.0,2.0,5.0,Jaun.,Brick-Panel,All amenities,450.0,57.000263399999994,24.121861
For sale,Šķirotava,Sila 2,3,52.0,1.0,2.0,Specpr.,Wood,Partial amenities,14980.0,56.907734700000006,24.222636899999998
For sale,Ziepniekkalns,Bauskas 135,1,20.0,2.0,2.0,P. kara,Wood,Partial amenities,7380.0,56.9141787,24.1217522
For sale,centrs,Maskavas 108,2,100.0,1.0,2.0,P. kara,Brick,Partial amenities,15890.0,56.8597884,24.3083417
For sale,Šķirotava,Malēju 4a,2,37.0,4.0,4.0,M. ģim.,Brick,All amenities,12890.0,56.90687475,24.220915782229994
For sale,centrs,Duntes 24a,1,24.0,2.0,2.0,P. kara,Brick,All amenities,9870.0,56.976516000000004,24.1354853
For sale,Maskavas priekšpilsēta,Daugavpils 8,1,24.0,1.0,3.0,P. kara,Wood,All amenities,10890.0,56.939892500000006,24.14141985484498
For sale,centrs,Valmieras 32,1,18.0,1.0,2.0,Staļina,Wood,Partial amenities,14500.0,56.95275325,24.1516129451998
For sale,Imanta,Dammes 36,2,50.0,3.0,9.0,602.,Panel,All amenities,53500.0,56.965632799999995,24.01121767973678
For rent,centrs,Tomsona 42,1,30.0,1.0,5.0,Hrušč.,Brick,All amenities,260.0,56.96867625,24.13004095
For sale,Torņakalns,Altonavas 19,1,17.0,1.0,2.0,Specpr.,Panel,All amenities,13500.0,56.9258216,24.0821144
For sale,centrs,Valdemāra 23,4,102.0,1.0,6.0,Renov.,Masonry,All amenities,250000.0,56.957058700000005,24.1144353
For sale,centrs,Lāčplēša 11,3,106.0,6.0,7.0,Jaun.,Panel-Brick,All amenities,492560.0,56.950124,24.132524399999998
For sale,Mežaparks,Ezermalas 13,2,72.0,2.0,5.0,Jaun.,Brick-Panel,All amenities,129000.0,56.99733515,24.1704467
For rent,centrs,Skolas 38,4,190.0,7.0,7.0,Renov.,Masonry,All amenities,900.0,48.296950200000005,-100.7081938
For rent,centrs,Lienes 14,1,30.0,2.0,3.0,P. kara,Brick,All amenities,160.0,56.95251535,24.147928119733788
For sale,Āgenskalns,Mūkusalas 29,3,210.0,2.0,4.0,Jaun.,Masonry,All amenities,250000.0,56.93693955000001,24.10193236312368
For rent,centrs,Birznieka-Upīša 13,2,55.0,2.0,5.0,Jaun.,Masonry,All amenities,700.0,56.94932950000001,24.126489205607477
For rent,centrs,Barona 17,1,18.0,5.0,5.0,P. kara,Masonry,All amenities,280.0,56.9522968,24.1231507
For rent,Purvciems,Dzelzavas 76,2,50.0,3.0,9.0,602.,Panel,All amenities,280.0,56.95501120000001,24.1985621
For rent,Purvciems,Dudajeva g. 5,1,28.0,4.0,5.0,LT proj.,Panel,All amenities,215.0,56.9570069,24.198736800000002
For sale,Ķengarags,Maskavas 419,2,47.0,2.0,5.0,LT proj.,Panel,All amenities,43000.0,56.898868500000006,24.20730725166903
For rent,Pļavnieki,Pļavnieku 9,1,46.0,7.0,9.0,Jaun.,Brick-Panel,All amenities,350.0,56.94203495,24.21275136511194
For rent,Pļavnieki,Grestes 2,1,31.0,6.0,9.0,602.,Panel,All amenities,285.0,56.93666555,24.20536485
For sale,Ķengarags,Salaspils 12/3,2,48.0,3.0,5.0,LT proj.,Panel,All amenities,42500.0,56.8597884,24.3083417
For rent,Ziepniekkalns,Īslīces 14,1,29.0,2.0,12.0,M. ģim.,Brick,All amenities,220.0,56.9001589,24.08251363217124
For rent,Torņakalns,Jelgavas 63,2,57.0,6.0,6.0,Jaun.,Brick-Panel,All amenities,400.0,56.9273343,24.092779702075518
For rent,Iļģuciems,Stūres 2,1,18.0,5.0,5.0,M. ģim.,Brick,All amenities,100.0,56.969220299999996,24.069493731814195
For rent,Zolitūde,Gramzdas 80,1,55.0,1.0,4.0,Jaun.,Panel,All amenities,175.0,56.94145735,24.00301883923461
For sale,Purvciems,Burtnieku 33,1,18.0,5.0,5.0,Specpr.,Panel-Brick,Partial amenities,12000.0,56.9685701,24.1819824
For rent,centrs,Bruņinieku 115,1,22.0,1.0,4.0,Renov.,Masonry,All amenities,250.0,56.94997100000001,24.144142335231727
For rent,Sarkandaugava,Tilta 4,1,38.0,4.0,4.0,P. kara,Masonry,All amenities,300.0,56.99330265,24.123960029784808
For rent,Maskavas priekšpilsēta,Viļānu 6,1,37.0,5.0,5.0,LT proj.,Panel,All amenities,280.0,56.9397657,24.1531645
For rent,centrs,Marijas 16,4,104.0,4.0,6.0,Renov.,Masonry,All amenities,850.0,56.9505796,24.1255938
For sale,Pļavnieki,Rudens 9,2,51.0,2.0,9.0,602.,Panel,All amenities,54000.0,56.93855065,24.20157666062909
For sale,Ziepniekkalns,Komētas 26,3,77.0,1.0,4.0,Jaun.,Panel,All amenities,109000.0,56.914968,24.122889999999998
For sale,Ziepniekkalns,Komētas 32,2,65.0,1.0,4.0,Jaun.,Panel,All amenities,89000.0,56.914968,24.122889999999998
For sale,Zasulauks,Tapešu 23,2,38.0,2.0,5.0,Specpr.,Brick,All amenities,41000.0,56.9483586,24.047899511940347
For sale,Zolitūde,Bieziņa 3,2,58.0,9.0,10.0,119.,Panel,All amenities,50000.0,56.94454425,24.01739085
For sale,Imanta,Anniņmuižas bulvāris 38,3,101.0,4.0,18.0,Jaun.,Brick-Panel,All amenities,128000.0,56.96112105,24.018216795250048
For sale,Maskavas priekšpilsēta,Rēznas 5,4,130.0,1.0,5.0,Staļina,Masonry,All amenities,104000.0,56.9360312,24.1617323
For sale,Iļģuciems,Reņģes 2a,1,27.0,5.0,5.0,LT proj.,Panel,All amenities,28000.0,56.96535115,24.0616848
For rent,Āgenskalns,Nometņu 62,1,20.0,1.0,1.0,Priv. m.,Wood,All amenities,260.0,56.9366902,24.071333988939127
For sale,Purvciems,Marsa g. 10,3,66.0,1.0,5.0,LT proj.,Panel,All amenities,53000.0,56.95183839999999,24.1999196
For rent,centrs,Lāčplēša 98,1,20.0,4.0,6.0,Renov.,Brick-Panel,All amenities,120.0,56.94440235,24.13236302327831
For rent,Maskavas priekšpilsēta,Maskavas 180,1,40.0,1.0,5.0,Specpr.,Brick,All amenities,240.0,56.8597884,24.3083417
For sale,Mangaļsala,Bākas 19,2,54.0,2.0,4.0,Specpr.,Brick-Panel,All amenities,38000.0,57.0528275,24.069508199999998
For rent,Grīziņkalns,Alauksta 9,3,109.0,6.0,6.0,Jaun.,Brick-Panel,All amenities,650.0,56.9610476,24.149369490567484
For sale,centrs,Alauksta 9,4,169.9,6.0,6.0,Jaun.,Brick-Panel,All amenities,185000.0,56.9610476,24.149369490567484
For sale,Iļģuciems,Vaidelotes 26,1,30.0,1.0,5.0,Hrušč.,Brick,Partial amenities,25000.0,56.96648980000001,24.0486124
For rent,Purvciems,Ķeguma 43,1,40.0,5.0,5.0,M. ģim.,Panel,All amenities,220.0,56.96378645,24.19618744948581
For sale,Maskavas priekšpilsēta,Krāslavas 7,3,74.0,4.0,5.0,P. kara,Masonry,All amenities,80000.0,56.9431965,24.1341844
For sale,centrs,Skārņu 25,2,45.0,3.0,5.0,Specpr.,Brick,All amenities,87000.0,56.947317500000004,24.110589800000003
For rent,centrs,Marijas 16,2,48.0,3.0,6.0,P. kara,Brick,All amenities,600.0,56.9505796,24.1255938
For sale,Vecrīga,Kungu 25,5,247.0,4.0,6.0,Specpr.,Panel,All amenities,399990.0,56.9453382,24.109463953308822
For sale,Vecrīga,Kungu 25,4,164.0,6.0,6.0,Specpr.,Panel,All amenities,269990.0,56.9453382,24.109463953308822
For sale,Vecrīga,Kungu 25,Citi,330.0,5.0,6.0,Specpr.,Panel,All amenities,474990.0,56.9453382,24.109463953308822
For sale,Vecrīga,Kungu 25,4,132.0,4.0,6.0,Specpr.,Panel,All amenities,209990.0,56.9453382,24.109463953308822
For sale,centrs,Alberta 7,6,168.0,2.0,5.0,P. kara,Masonry,All amenities,310800.0,56.95892215000001,24.109610509730803
For sale,Zolitūde,Priedaines 13,4,184.0,5.0,5.0,Jaun.,Panel-Brick,All amenities,172000.0,56.94258129999999,24.01565897529245
For sale,Āgenskalns,Vīlipa 8,2,50.0,3.0,9.0,467.,Panel,All amenities,55000.0,56.9478021,24.05822671686205
For sale,Torņakalns,Jelgavas 63,2,47.0,3.0,6.0,Jaun.,Panel-Brick,All amenities,68000.0,56.9273343,24.092779702075518
For sale,Teika,Palmu 13,2,48.0,1.0,2.0,P. kara,Brick,All amenities,54000.0,56.98073170000001,24.179287164899996
For sale,Iļģuciems,Reņģes 5,2,50.0,2.0,3.0,Staļina,Brick,All amenities,42000.0,56.9661156,24.063304876037346
For sale,Iļģuciems,Buļļu 42a,1,45.0,5.0,9.0,119.,Panel,All amenities,47800.0,56.9682471,24.0497274
For sale,Purvciems,Stirnu 43,3,59.0,1.0,5.0,LT proj.,Panel,All amenities,45500.0,56.9621302,24.18794131475684
For rent,centrs,Rūpniecības 20,3,89.0,2.0,4.0,Renov.,Brick,All amenities,950.0,56.9612223,24.10420360015229
For sale,Šampēteris-Pleskodāle,Stendes 5,2,72.0,1.0,5.0,Jaun.,Panel,All amenities,145000.0,56.9399149,24.0365127
For sale,Purvciems,Madonas 25,4,93.0,6.0,9.0,119.,Panel,All amenities,95000.0,56.960423999999996,24.173289699999998
For sale,Purvciems,Dzelzavas 74k1,3,73.8,7.0,11.0,Jaun.,Masonry,All amenities,109500.0,56.9652534,24.1656139
For sale,Ķīpsala,Balasta d. 72,3,122.0,1.0,3.0,Jaun.,Masonry,All amenities,262000.0,56.948934400000006,24.0882804
For rent,Teika,Stārķu 2,2,45.0,1.0,5.0,Jaun.,Panel,All amenities,500.0,56.966920900000005,24.168989399999997
For sale,Dārzciems,Sesku 11,1,42.0,5.0,5.0,M. ģim.,Panel,All amenities,31000.0,56.9454164,24.177293967906817
For sale,Iļģuciems,Baltā 22/1,3,65.0,3.0,5.0,103.,Brick-Panel,All amenities,70000.0,56.9653645,24.0697389
For sale,Vecmīlgrāvis,Meldru 6,2,43.0,5.0,4.0,Hrušč.,Brick,All amenities,30000.0,57.02846205,24.102091273219237
For sale,Ķengarags,Aglonas 12,3,60.0,1.0,5.0,Hrušč.,Panel,All amenities,54000.0,56.91125405,24.185960870958056
For rent,centrs,Vīlandes 10,3,135.0,5.0,5.0,Renov.,Brick,All amenities,1000.0,56.9603826,24.10228204150134
For rent,centrs,Stabu 71,2,47.0,3.0,5.0,P. kara,Masonry,All amenities,450.0,56.952700300000004,24.136204
For rent,Purvciems,Burtnieku 35,1,18.0,2.0,4.0,Specpr.,Brick,All amenities,200.0,56.96760975,24.181353900357145
For rent,centrs,Brīvības iela 139,3,200.0,2.0,5.0,Renov.,Brick,All amenities,2500.0,56.96504880000001,24.1412185789765
For sale,centrs,Vīlandes 5,5,225.0,5.0,6.0,P. kara,Masonry,All amenities,258000.0,56.9599631,24.1017027
For rent,centrs,Marijas 16,2,32.0,4.0,6.0,Renov.,Brick,All amenities,410.0,56.9505796,24.1255938
For rent,Dzegužkalns,Jaunsaules 5,1,18.0,2.0,5.0,LT proj.,Panel,All amenities,165.0,56.9552306,24.049577650756305
For rent,centrs,Rūpniecības 5,2,120.0,5.0,5.0,Renov.,Masonry,All amenities,820.0,56.959677799999994,24.1027358
For rent,Mežciems,Mežciema 44,2,49.0,5.0,5.0,LT proj.,Panel,All amenities,380.0,56.97328935,24.23799040576541
For sale,centrs,Tērbatas 59/61,4,97.0,6.0,6.0,Renov.,Masonry,All amenities,145350.0,56.9578128,24.130055600000002
For sale,Bolderāja,Gobas 29,2,60.0,4.0,5.0,Specpr.,Brick,All amenities,40000.0,57.03086935,24.05388700410905
For sale,Purvciems,Stirnu 36,2,45.0,5.0,5.0,LT proj.,Panel,All amenities,43500.0,56.96090270000001,24.19103095000001
For sale,centrs,Blaumaņa 12,2,58.3,6.0,6.0,Renov.,Masonry,All amenities,169070.0,56.9548306,24.1221141
For rent,centrs,Klijānu 6,3,79.0,7.0,9.0,Jaun.,Masonry,All amenities,850.0,56.9726557,24.149311721285123
For rent,Mežciems,Kaivas 74b,3,70.0,1.0,5.0,Jaun.,Masonry,All amenities,470.0,56.9541725,24.2443253
For rent,Zolitūde,Zolitūdes 47,1,45.0,9.0,8.0,119.,Panel,All amenities,260.0,56.94801800000001,23.999478256460552
For rent,centrs,Jeruzalemes 5,2,67.0,2.0,6.0,Jaun.,Panel-Brick,All amenities,60.0,56.9579333,24.113967000000002
For sale,Imanta,Dubultu 4,3,55.0,5.0,5.0,LT proj.,Panel,All amenities,53500.0,56.955287899999995,24.005237223051644
For rent,centrs,Čaka 117/1,3,75.0,6.0,6.0,Renov.,Masonry,All amenities,700.0,56.9626863,24.148058399999996
For sale,Daugavgrīva,Birzes 46,3,71.7,2.0,5.0,103.,Brick,All amenities,48000.0,57.03601395,24.024907264002685
For rent,Vecrīga,Peitavas 5,3,78.0,5.0,5.0,Renov.,Brick,All amenities,700.0,56.9462191,24.1099153
For sale,centrs,Skanstes 29a,5,167.0,21.0,24.0,Jaun.,Panel-Brick,All amenities,299000.0,56.97222289999999,24.123978704226648
For sale,centrs,Maskavas 57,2,68.0,3.0,3.0,P. kara,Masonry,All amenities,64500.0,56.93970755,24.13245454385181
For rent,Teika,Bajāru 7,3,58.0,2.0,2.0,Jaun.,Brick,All amenities,630.0,56.97216595,24.18026665
For rent,Zolitūde,Gramzdas 82,1,55.0,1.0,4.0,Jaun.,Brick-Panel,All amenities,350.0,56.940896200000005,24.00410683525351
For sale,Ziepniekkalns,Valdeķu 50/1,3,64.0,8.0,9.0,602.,Panel,All amenities,72300.0,56.9150015,24.096705899999996
For rent,centrs,Gogoļa 7,2,60.0,4.0,4.0,P. kara,Masonry,All amenities,390.0,56.944427600000004,24.121862839921388
For sale,Dārzciems,Sesku 7/1,1,42.0,2.0,5.0,M. ģim.,Panel,All amenities,33000.0,56.944418000000006,24.1719745
For rent,Daugavgrīva,Flotes 8,1,25.0,2.0,2.0,Renov.,Brick,All amenities,180.0,57.0426738,24.0360848
For sale,Vecmīlgrāvis,Rinkas 3,3,67.0,1.0,5.0,LT proj.,Panel,All amenities,58300.0,57.03222745,24.10137009155025
For rent,Jugla,Veldres 7,2,45.0,3.0,5.0,Hrušč.,Panel,All amenities,300.0,56.975919299999994,24.24536974642972
For rent,centrs,Sadovņikova 25,2,67.0,3.0,5.0,Jaun.,Panel-Brick,All amenities,35.0,56.940855500000005,24.1364923
For sale,Ķengarags,Salaspils 18/4,2,45.0,4.0,5.0,LT proj.,Panel,All amenities,49000.0,56.9267343,24.175330300000002
For sale,centrs,Blaumaņa 36,Citi,190.0,4.0,5.0,P. kara,Brick,All amenities,350000.0,56.95172905,24.125814894424444
For rent,centrs,Tomsona 30,2,81.0,2.0,9.0,Jaun.,Brick-Panel,All amenities,650.0,56.9665863,24.1282258
For rent,centrs,Barona 24/26,1,20.0,2.0,6.0,Jaun.,Brick-Panel,All amenities,370.0,56.95161295,24.12245714786153
For rent,Pļavnieki,Ulbrokas 12,2,61.0,6.0,8.0,Jaun.,Brick,All amenities,390.0,56.94122905,24.217423167468997
For rent,centrs,Barona 21,1,40.0,4.0,5.0,P. kara,Masonry,All amenities,25.0,56.95257120000001,24.1236797
For rent,centrs,Antonijas 22,2,88.0,5.0,6.0,Renov.,Masonry,All amenities,550.0,56.9601368,24.1142701
For sale,Ziepniekkalns,Līvciema 9/1,3,76.0,5.0,7.0,Specpr.,Panel,All amenities,71915.0,56.90191239999999,24.1024598
For rent,Iļģuciems,Lidoņu 3a,2,50.0,3.0,5.0,LT proj.,Panel,All amenities,300.0,56.97140105,24.07070107992264
For rent,Grīziņkalns,Alauksta 21,1,30.0,2.0,5.0,P. kara,Brick,All amenities,220.0,56.95989670000001,24.1516983
For sale,centrs,Šarlotes 7,2,33.0,3.0,6.0,Jaun.,Masonry,Partial amenities,80000.0,56.964586100000005,24.128632500000002
For sale,Jugla,Bākūžu 13a,4,96.1,1.0,3.0,Renov.,Masonry,All amenities,150000.0,56.9876991,24.235056699999998
For sale,Purvciems,Ūnijas 76a,3,62.0,5.0,5.0,LT proj.,Panel,Partial amenities,68000.0,56.96065105,24.183332773969287
For sale,Teika,Brīvības gatve 229,2,42.0,5.0,5.0,Hrušč.,Brick,All amenities,50000.0,56.9761938,24.175533699999995
For rent,centrs,Pērnavas 7,3,75.5,6.0,6.0,Renov.,Masonry,All amenities,550.0,56.96431685,24.150479520231578
For sale,centrs,Ģertrūdes 69/71,3,83.0,3.0,6.0,P. kara,Masonry,All amenities,112000.0,56.958232499999994,24.121535199999997
For sale,Ziepniekkalns,Valdeķu 54/4,1,32.0,7.0,9.0,602.,Panel,All amenities,33000.0,56.9150015,24.096705899999996
For sale,Purvciems,Ilūkstes 101/1,1,37.0,5.0,5.0,103.,Brick-Panel,All amenities,28990.0,56.94058670000001,24.1951866
For sale,Dārzciems,Nīcgales 46,2,51.0,9.0,2.0,602.,Panel,All amenities,49000.0,56.945342000000004,24.17094694880255
For rent,centrs,Pērnavas 39,1,25.0,5.0,6.0,P. kara,Brick,All amenities,200.0,56.9555075,24.153498939456266
For rent,centrs,Ģertrūdes 99k2,2,30.0,3.0,5.0,P. kara,Masonry,Partial amenities,350.0,56.958232499999994,24.121535199999997
For sale,centrs,Asara 12/5,4,107.0,1.0,5.0,Renov.,Wood,All amenities,200000.0,56.956506000000005,24.1531491
For sale,Ķengarags,Maskavas 268/2,2,47.0,5.0,5.0,LT proj.,Panel,All amenities,49500.0,56.94476985,24.113346173001872
For rent,centrs,Ģertrūdes 22,2,60.0,5.0,5.0,Renov.,Brick,All amenities,550.0,56.9560762,24.124570493698286
For rent,centrs,Čaka 156,1,33.0,5.0,6.0,P. kara,Masonry,All amenities,180.0,56.96369115,24.1518237736014
For rent,centrs,Krāsotāju 2,4,75.0,1.0,2.0,P. kara,Wood,All amenities,450.0,56.953571999999994,24.14258217880619
For sale,centrs,Duntes 28,2,52.0,9.0,16.0,Jaun.,Masonry,All amenities,80000.0,56.988090899999996,24.133890761853447
For sale,Iļģuciems,Riekstu 11,4,96.0,4.0,5.0,Jaun.,Masonry,All amenities,129500.0,56.96791915,24.063640173287677
For sale,Ķengarags,Maltas 21,2,49.0,1.0,5.0,LT proj.,Panel,All amenities,39500.0,56.909529000000006,24.186238063336734
For sale,centrs,Brīvības iela 162k2,3,68.0,3.0,7.0,Jaun.,Panel,All amenities,77950.0,56.96700379999999,24.147127899999997
For rent,Jugla,Brīvības gatve 391,2,44.0,4.0,5.0,Hrušč.,Brick,All amenities,300.0,56.98820185,24.22564849363986
For rent,centrs,Brīvības 162/2,2,43.0,8.0,8.0,Specpr.,Brick,All amenities,350.0,56.969556499999996,24.1547355
For rent,Pļavnieki,Pavasara g. 2,1,35.0,6.0,9.0,602.,Panel,All amenities,250.0,56.9346184,24.1980807
For sale,Mežciems,Biķernieku 218,2,53.0,4.0,5.0,103.,Brick,All amenities,53500.0,56.95765645,24.29116442484242
For rent,Jugla,Brīvības gatve 388,1,34.0,4.0,12.0,M. ģim.,Brick-Panel,All amenities,200.0,56.986815799999995,24.2220345
For sale,centrs,Indrānu 3,3,76.0,1.0,4.0,P. kara,Masonry,All amenities,102000.0,56.967951799999994,24.14735819757061
For rent,Vecrīga,Peitavas 5,3,110.0,3.0,5.0,Renov.,Masonry,All amenities,600.0,56.9462191,24.1099153
For sale,Mežciems,Eizenšteina 79,3,63.0,4.0,9.0,602.,Panel,All amenities,65000.0,56.9613221,24.234241075161535
For sale,centrs,Pētersalas 2,3,79.0,2.0,5.0,P. kara,Brick,All amenities,110600.0,56.9678993,24.10503793415288
For sale,Imanta,Slokas 217,3,54.0,5.0,5.0,LT proj.,Panel,All amenities,39000.0,56.962357,24.00222004999999
For rent,Vecrīga,Vāgnera 12,2,35.0,3.0,4.0,Renov.,Masonry,All amenities,400.0,56.94881585,24.111473859108518
For rent,centrs,Lāčplēša 119,1,16.0,1.0,5.0,Specpr.,Brick,All amenities,17.0,56.944767000000006,24.13332945
For sale,Iļģuciems,Palangas 1,2,51.0,5.0,5.0,LT proj.,Brick-Panel,All amenities,42000.0,56.96947610000001,24.054163804245157
For sale,Pļavnieki,Keldiša 28,2,51.0,8.0,9.0,602.,Panel,All amenities,43300.0,56.9382367,24.210029700258037
For sale,centrs,Tērbatas 16/18,4,122.0,5.0,5.0,P. kara,Brick,All amenities,225000.0,56.9539113,24.1220605
For sale,centrs,Ģertrūdes 113,3,71.0,6.0,6.0,P. kara,Masonry,All amenities,92800.0,56.948856400000004,24.138497033950248
For sale,centrs,Ģertrūdes 113,2,42.0,6.0,6.0,P. kara,Masonry,All amenities,57800.0,56.948856400000004,24.138497033950248
For rent,Āgenskalns,Baložu 5,4,112.0,3.0,3.0,Priv. m.,Brick,All amenities,1200.0,56.94372935,24.07516039758248
For rent,Ķīpsala,Ķīpsalas 4,2,52.0,3.0,4.0,Jaun.,Masonry,All amenities,650.0,56.95188100000001,24.08376627083837
For sale,Ķengarags,Višķu 11,1,33.0,4.0,5.0,LT proj.,Panel,All amenities,34000.0,56.89938885,24.21369425
For sale,Ķengarags,Salaspils 12 k5,1,33.0,3.0,5.0,LT proj.,Panel,All amenities,34000.0,56.9267343,24.175330300000002
For sale,Sarkandaugava,Sarkandaugavas 31,3,74.2,9.0,9.0,Specpr.,Brick-Panel,All amenities,79000.0,57.0024532,24.12289435654917
For sale,Ķengarags,Maltas 15,3,61.0,4.0,5.0,LT proj.,Panel,All amenities,58000.0,56.9106275,24.183669470648926
For rent,Ziepniekkalns,Ozolciema 38,1,44.0,2.0,9.0,119.,Panel,All amenities,350.0,56.9012723,24.097667404917306
For sale,Imanta,Kleistu 8,3,54.0,4.0,5.0,LT proj.,Panel,All amenities,68000.0,56.96056895,24.02284250000001
For sale,Purvciems,Stirnu 37,1,36.0,5.0,9.0,602.,Panel,All amenities,35000.0,56.961606999999994,24.187133502182625
For rent,centrs,Lāčplēša 98,1,20.0,3.0,5.0,Renov.,Brick-Panel,All amenities,235.0,56.94440235,24.13236302327831
For rent,Pļavnieki,Salnas 21,2,43.0,1.0,9.0,Jaun.,Brick-Panel,All amenities,360.0,56.942327,24.23009287799782
For rent,centrs,Matīsa 109,3,88.0,5.0,5.0,Renov.,Brick,All amenities,400.0,56.9581178,24.1311146
For rent,Dzegužkalns,Ķiršu 4,2,25.0,1.0,2.0,P. kara,Masonry,All amenities,250.0,56.95531125,24.057710501637764
For rent,Ziepniekkalns,Sērenes 4,3,75.0,2.0,16.0,104.,Panel,All amenities,350.0,56.90479835,24.084015265710573
For sale,Pļavnieki,Salnas 24,1,39.0,2.0,5.0,M. ģim.,Panel,All amenities,31900.0,56.94167865,24.22621375
For rent,centrs,Zaubes 9,3,95.0,3.0,6.0,Jaun.,Masonry,All amenities,1050.0,56.96345649999999,24.12191487633307
For rent,Purvciems,Vairoga 32,3,52.0,3.0,3.0,Jaun.,Masonry,All amenities,520.0,56.9690716,24.171649886013512
For sale,Ķengarags,Maskavas 268,2,48.0,3.0,5.0,LT proj.,Panel,All amenities,43500.0,56.8597884,24.3083417
For sale,Vecmīlgrāvis,Staru 21,3,68.0,4.0,5.0,LT proj.,Panel,All amenities,43900.0,57.0336091,24.099216029556068
For sale,Pļavnieki,Zemes 9,1,38.5,2.0,9.0,M. ģim.,Panel,All amenities,31000.0,56.94229549999999,24.19988595647548
For rent,Vecmīlgrāvis,Kāvu 4,1,30.0,5.0,5.0,LT proj.,Panel,All amenities,200.0,57.0331188,24.100459327776193
For sale,Purvciems,Ūnijas 64,3,61.0,4.0,5.0,LT proj.,Panel,All amenities,67500.0,56.96241135,24.17969262177753
For sale,Sarkandaugava,Patversmes 30/2,2,72.0,3.0,4.0,Staļina,Brick,All amenities,68500.0,56.99094100000001,24.1329725
For rent,centrs,Brīvības 72,2,85.0,3.0,6.0,P. kara,Masonry,All amenities,500.0,56.957785,24.1241849
For sale,Pļavnieki,Jasmuižas 10,2,50.0,4.0,9.0,602.,Panel,All amenities,60000.0,56.93627829999999,24.21107490000001
For rent,centrs,Strēlnieku 7,2,57.0,5.0,7.0,Jaun.,Panel-Brick,All amenities,750.0,56.9596279,24.107990899999997
For sale,Bolderāja,Stagaru 4,2,51.0,3.0,5.0,103.,Panel,All amenities,34000.0,57.02965155,24.035975194523694
For rent,centrs,Skolas 36,2,52.0,3.0,4.0,P. kara,Brick,All amenities,700.0,48.296950200000005,-100.7081938
For sale,Āgenskalns,Kuldīgas 32,2,50.0,2.0,4.0,Renov.,Masonry,All amenities,64480.0,56.947470499999994,24.0604076
For rent,Iļģuciems,Kurzemes pr. 58,2,50.0,4.0,5.0,LT proj.,Panel,All amenities,350.0,56.9567829,24.0344957
For sale,Šampēteris-Pleskodāle,Volguntes 27,1,31.0,5.0,5.0,Hrušč.,Brick,All amenities,33000.0,56.93731855,24.041463414654697
For rent,centrs,Dzirnavu 130,2,53.0,1.0,2.0,P. kara,Wood,Partial amenities,250.0,56.944385399999994,24.126432100000002
For rent,centrs,Alberta 9,2,56.0,1.0,6.0,Renov.,Masonry,All amenities,590.0,56.95901410000001,24.10916304459397
For sale,Krasta r-ns,Maskavas 224,2,50.0,9.0,9.0,467.,Panel-Brick,All amenities,58000.0,56.8597884,24.3083417
For rent,centrs,Brīvības 59,1,40.0,6.0,6.0,P. kara,Masonry,All amenities,520.0,56.95798105,24.12339448120841
For sale,Bolderāja,Lielupes 1,2,59.0,2.0,2.0,Staļina,Brick,All amenities,38999.0,57.0386355,24.0464749
For rent,centrs,Lenču 2,2,45.0,1.0,6.0,P. kara,Masonry,All amenities,500.0,56.9616145,24.1100341
For rent,centrs,Valdemāra 75,2,82.0,6.0,6.0,P. kara,Masonry,All amenities,670.0,56.962523899999994,24.123901500000002
For sale,Dārzciems,Strautu 27,1,39.0,3.0,5.0,M. ģim.,Panel,All amenities,30500.0,56.9405505,24.188236264972577
For rent,centrs,Barona 63,2,60.0,2.0,5.0,Renov.,Masonry,All amenities,400.0,56.95713205,24.13275913197816
For rent,Āgenskalns,Kandavas 8,1,34.0,4.0,5.0,103.,Brick-Panel,All amenities,260.0,56.9488968,24.05055064802721
For sale,Pļavnieki,Pavasara g. 1,4,79.0,4.0,9.0,602.,Panel,All amenities,74500.0,56.9346184,24.1980807
For rent,centrs,Lāčplēša 14,4,96.0,5.0,6.0,P. kara,Masonry,All amenities,650.0,56.9557312,24.1222604
For rent,Āgenskalns,Jūrmalas g. 7,3,55.0,5.0,5.0,LT proj.,Panel,All amenities,380.0,56.95218739999999,24.027693600000003
For sale,Dzegužkalns,Dzirciema 71,2,49.0,2.0,9.0,602.,Panel,All amenities,50000.0,56.96512045,24.054982889336852
For rent,Pļavnieki,Saharova 15,1,49.0,10.0,12.0,104.,Panel,All amenities,300.0,56.93679455,24.20183697226337
For rent,centrs,Elizabetes 10,2,52.0,2.0,5.0,P. kara,Masonry,All amenities,420.0,56.95782320000001,24.110616699999998
For rent,Ķengarags,Maskavas 261,1,19.0,5.0,5.0,Renov.,Brick,All amenities,260.0,56.8597884,24.3083417
For rent,Āgenskalns,Mūkusalas 29,2,61.0,4.0,4.0,Jaun.,Masonry,All amenities,750.0,56.93693955000001,24.10193236312368
For rent,centrs,Ausekļa 11,4,145.0,5.0,6.0,P. kara,Masonry,All amenities,1200.0,56.961763299999994,24.09989064429743
For sale,Purvciems,Madonas 2,2,48.0,4.0,5.0,Jaun.,Panel,All amenities,87000.0,56.95944105,24.166636044377732
For sale,Iļģuciems,Palangas 7,2,49.0,2.0,5.0,LT proj.,Panel,All amenities,45000.0,56.970867000000005,24.053875881446857
For sale,Ķengarags,Maskavas 291,3,62.0,3.0,5.0,LT proj.,Panel,All amenities,53900.0,56.9168339,24.176982950000014
For sale,Teika,Brīvības gatve 228,2,56.0,3.0,4.0,Staļina,Masonry,All amenities,75000.0,56.972520900000006,24.1654296
For rent,Vecrīga,Kalēju 74,2,72.0,4.0,7.0,Jaun.,Panel,All amenities,650.0,56.94545600000001,24.1115799
For rent,Jugla,Ciemupes 2,3,130.0,9.0,9.0,Jaun.,Brick-Panel,All amenities,690.0,56.987292700000005,24.247263777765315
For sale,Vecmīlgrāvis,Kāvu 10,2,50.0,1.0,5.0,LT proj.,Panel,All amenities,38500.0,57.03387165,24.10162238406995
For rent,Maskavas priekšpilsēta,Maskavas 146,1,20.0,1.0,5.0,Renov.,Brick,All amenities,260.0,56.8597884,24.3083417
For sale,centrs,Ģertrūdes 99,2,46.0,2.0,6.0,Renov.,Masonry,All amenities,99029.0,56.94999685,24.136413900628373
For sale,Vecrīga,13. janvāra 33,3,82.0,2.0,4.0,P. kara,Brick,All amenities,124000.0,56.94451965,24.109784817254585
For sale,centrs,Miera 105,2,46.5,6.0,6.0,Renov.,Masonry,All amenities,81400.0,56.96657629999999,24.1337504
For sale,Purvciems,Ilūkstes 103/3,2,49.0,7.0,9.0,467.,Panel,All amenities,60500.0,56.934628700000005,24.195207
For rent,centrs,Stabu 46,1,14.0,5.0,6.0,P. kara,Masonry,All amenities,150.0,56.9543322,24.1313043698515
For sale,centrs,Elku 4,3,108.0,6.0,6.0,Renov.,Brick,All amenities,169000.0,56.96741145,24.144474678980426
For sale,Imanta,Kleistu 11-1,3,74.0,6.0,12.0,Jaun.,Panel,All amenities,115000.0,56.96757370000001,24.0276706
For sale,centrs,Valdemāra 106,3,76.0,1.0,5.0,Staļina,Masonry,All amenities,129000.0,56.9717941,24.134779
For rent,Teika,Ūnijas 36,1,20.0,1.0,5.0,103.,Brick-Panel,All amenities,160.0,56.96655575,24.17412455333564
For sale,Imanta,Dammes 25,2,50.0,8.0,9.0,602.,Panel,All amenities,54000.0,56.96414355,24.00807297548349
For sale,centrs,Baznīcas 35,4,171.0,4.0,6.0,P. kara,Masonry,All amenities,385000.0,56.958480099999996,24.1222427
For sale,Čiekurkalns,Rusova 9,3,68.0,2.0,7.0,Jaun.,Panel,All amenities,118000.0,56.98909155,24.170334430251565
For sale,centrs,Matīsa 82,1,22.0,2.0,2.0,P. kara,Wood,All amenities,7900.0,56.95092055,24.146124819320693
For rent,Āgenskalns,Mūkusalas 25,1,35.6,4.0,6.0,Jaun.,Masonry,All amenities,550.0,56.93740390000001,24.10117626311409
For sale,Teika,Burtnieku 33,1,19.0,3.0,5.0,M. ģim.,Brick,All amenities,19900.0,56.9685701,24.1819824
For rent,Mangaļi,Ezera 18,1,35.0,2.0,3.0,Specpr.,Brick,All amenities,230.0,57.02365495,24.1330612
For sale,Sarkandaugava,Hāpsalas 1k3,3,76.0,5.0,5.0,Specpr.,Brick,All amenities,62000.0,57.000263399999994,24.121861
For sale,Šampēteris-Pleskodāle,Volguntes 17a,1,25.0,2.0,2.0,P. kara,Wood,All amenities,12000.0,56.938759,24.0439698
For sale,Imanta,Anniņmuižas bulvāris 38,2,67.0,5.0,18.0,Jaun.,Panel,All amenities,89900.0,56.96112105,24.018216795250048
For sale,Iļģuciems,Stūres 2,1,18.0,5.0,5.0,M. ģim.,Brick,All amenities,11800.0,56.969220299999996,24.069493731814195
For rent,centrs,Ģertrūdes 107,1,15.0,4.0,5.0,P. kara,Masonry,All amenities,130.0,56.94970365,24.138183661130643
For sale,Purvciems,Vaidavas 2,2,43.0,1.0,5.0,Hrušč.,Masonry,All amenities,43999.0,56.96511765,24.176048197694836
For sale,Ķengarags,Lokomotīves 48,2,38.2,2.0,5.0,LT proj.,Panel,All amenities,36900.0,56.90837855,24.20066605
For sale,Āgenskalns,Mārtiņa 8,3,77.0,4.0,7.0,Renov.,Masonry,All amenities,115000.0,56.947906,24.07095027444209
For sale,Sarkandaugava,Patversmes 5,1,33.0,1.0,3.0,P. kara,Masonry,All amenities,32900.0,56.99406139999999,24.1281800964357
For sale,Pļavnieki,Pavasara g. 5,2,50.0,2.0,9.0,602.,Panel,All amenities,54000.0,56.9346184,24.1980807
For sale,centrs,Brīvības iela 161,2,40.0,4.0,5.0,Renov.,Masonry,All amenities,98000.0,56.9667358,24.14563510531528
For rent,centrs,Bruņinieku 115a,1,20.0,4.0,5.0,P. kara,Masonry,Partial amenities,155.0,56.95012020000001,24.1443988
For sale,Purvciems,Ilūkstes 56,3,66.0,2.0,5.0,LT proj.,Panel,All amenities,81900.0,56.9509491,24.19895958871575
For rent,centrs,Klusā 20,1,28.0,3.0,9.0,Jaun.,Masonry,All amenities,30.0,56.97650505,24.146495835700925
For sale,Zolitūde,Ruses 26,2,61.0,1.0,9.0,119.,Panel,All amenities,70000.0,56.9454805,24.009710100000003
For sale,Ziepniekkalns,Īslīces 3,3,75.0,7.0,9.0,119.,Panel,All amenities,75000.0,56.9004074,24.08374228852173
For rent,Torņakalns,Ludviķa 3,1,37.0,1.0,1.0,Staļina,Wood,Partial amenities,170.0,56.92553455,24.09567315846112
For sale,Zolitūde,Rostokas 38,3,78.0,2.0,7.0,119.,Panel,All amenities,86000.0,54.14361,12.05044145
For sale,Imanta,Kurzemes pr. 68,3,62.0,4.0,5.0,LT proj.,Panel,All amenities,47000.0,56.9567829,24.0344957
For sale,centrs,Marijas 16,4,100.0,6.0,7.0,P. kara,Masonry,All amenities,165000.0,56.9505796,24.1255938
For sale,Purvciems,Dudajeva g. 13,1,28.0,5.0,5.0,LT proj.,Panel,All amenities,27800.0,56.9570069,24.198736800000002
For sale,Purvciems,Viršu 3,3,79.0,9.0,9.0,119.,Panel,All amenities,80000.0,56.9521257,24.176113800000024
For sale,Mežciems,Hipokrāta 47,3,64.0,5.0,9.0,602.,Panel,All amenities,67000.0,56.96138255,24.23561975
For sale,Mežciems,Kaivas 50,2,55.0,3.0,5.0,Specpr.,Panel,All amenities,77900.0,56.95546705,24.24181865
For sale,Ķengarags,Lokomotīves 88,2,50.0,5.0,5.0,LT proj.,Panel,All amenities,52000.0,56.90193410000001,24.213842727808466
For sale,Dārzciems,Zeltiņu 11,1,35.0,4.0,5.0,103.,Brick,All amenities,42900.0,56.9482182,24.168458596614
For sale,Torņakalns,Jelgavas 63 k-3,2,36.6,1.0,6.0,Jaun.,Panel-Brick,All amenities,60000.0,56.92802389999999,24.09322537183715
For rent,Maskavas priekšpilsēta,Kalna 11,2,32.0,3.0,3.0,P. kara,Masonry,All amenities,250.0,56.9422441,24.14332980106805
For rent,centrs,Marijas 16,2,50.0,3.0,6.0,P. kara,Brick,All amenities,600.0,56.9505796,24.1255938
For sale,Jugla,Juglas 10,3,111.4,2.0,9.0,Jaun.,Panel-Brick,All amenities,164500.0,56.9865865,24.24725628833992
For sale,centrs,Brīvības bulvāris 241,3,68.0,3.0,5.0,Specpr.,Brick-Panel,All amenities,60000.0,56.9526754,24.1155509
For rent,Iļģuciems,Kreslera 1,1,32.0,1.0,2.0,M. ģim.,Brick,All amenities,200.0,56.96337905,24.065128626485528
For sale,Ķengarags,Lokomotīves 48,2,38.0,2.0,5.0,LT proj.,Panel,All amenities,36900.0,56.90837855,24.20066605
For rent,centrs,Barona 76,3,71.0,6.0,6.0,Renov.,Masonry,All amenities,725.0,56.95643795,24.132572982155622
For sale,centrs,Katrīnas d. 16a,2,41.9,3.0,5.0,Hrušč.,Brick,All amenities,62500.0,56.9716816,24.1021951
For sale,Purvciems,Staiceles 15,2,50.0,6.0,9.0,602.,Panel,All amenities,54000.0,56.95828335,24.172910526855468
For sale,Purvciems,Stirnu 1,2,52.0,4.0,9.0,Jaun.,Masonry,All amenities,85000.0,56.9509837,24.183373142340717
For rent,centrs,Klusā 9,2,50.0,1.0,5.0,Specpr.,Brick,All amenities,26.0,56.97457845,24.14428161408948
For sale,Daugavgrīva,Plēksnes 6,1,32.0,5.0,5.0,M. ģim.,Brick-Panel,All amenities,24700.0,57.0402147,24.03145737753807
For rent,centrs,Baznīcas 7,1,10.0,6.0,6.0,P. kara,Masonry,All amenities,190.0,56.95594065,24.11772350091805
For rent,Dzegužkalns,Daugavgrīvas 56,3,57.0,1.0,9.0,467.,Panel,All amenities,350.0,56.9556152,24.06916830576695
For rent,Iļģuciems,Daugavgrīvas 56,3,57.0,1.0,9.0,467.,Panel,All amenities,350.0,56.9556152,24.06916830576695
For rent,Teika,Ropažu 22,2,42.0,4.0,5.0,Hrušč.,Brick,All amenities,320.0,56.977676100000004,24.1719745
For rent,centrs,Stabu 49a,2,46.0,3.0,5.0,P. kara,Masonry,All amenities,19.0,56.95468425,24.132250603938648
For rent,Ziepniekkalns,Valdeķu 54/5,1,32.0,5.0,9.0,602.,Panel,All amenities,230.0,56.900060700000004,24.0925604
For sale,Āgenskalns,Kalnciema 42,5,91.0,2.0,4.0,P. kara,Brick,All amenities,132000.0,56.94206255,24.064275375236196
For rent,Iļģuciems,Iļģuciema 5,3,52.0,1.0,2.0,P. kara,Wood,Partial amenities,240.0,56.9624473,24.052760699999997
For sale,Pļavnieki,Ulbrokas 22,1,32.0,4.0,9.0,602.,Panel,All amenities,35500.0,56.944072899999995,24.21773921259132
For rent,Iļģuciems,Skujenes 13,2,46.0,5.0,5.0,Hrušč.,Panel,All amenities,300.0,56.96306045,24.04793637560816
For sale,Teika,Caunes 17,2,47.0,3.0,5.0,Hrušč.,Brick,All amenities,59500.0,56.981559999999995,24.1908887
For rent,centrs,Brīvības iela 170,2,51.0,2.0,6.0,P. kara,Masonry,All amenities,340.0,56.965966,24.144504100000002
For rent,centrs,Brīvības 92/94,2,60.0,2.0,5.0,Hrušč.,Brick,All amenities,690.0,56.9604576,24.1316378
For sale,Teika,Raunas 19,3,72.0,3.0,5.0,103.,Brick-Panel,All amenities,76000.0,56.96893685000001,24.17361809738481
For sale,Dārzciems,Rumbulas 1,1,42.0,5.0,5.0,M. ģim.,Brick,All amenities,27000.0,56.94363395000001,24.171764418887697
For rent,Dzegužkalns,Kreslera 1/5,2,46.0,2.0,2.0,Hrušč.,Brick,All amenities,250.0,56.9644458,24.064007500000002
For sale,centrs,Tērbatas 41/43,3,87.0,4.0,5.0,P. kara,Brick,All amenities,142000.0,56.9557759,24.1253193
For rent,centrs,13. janvāra 21,1,58.0,6.0,7.0,Jaun.,Panel,All amenities,800.0,56.944378099999994,24.110508499999998
For sale,centrs,Blaumaņa 12,1,36.6,6.0,7.0,Renov.,Masonry,All amenities,102480.0,56.9548306,24.1221141
For rent,Purvciems,Deglava 7,1,46.0,5.0,6.0,Jaun.,Brick-Panel,All amenities,27.0,56.95377445,24.15414780388375
For sale,Zolitūde,Ruses 16,4,95.0,6.0,9.0,119.,Panel,All amenities,91000.0,56.94627775,24.003863917302304
For sale,Sarkandaugava,Hāpsalas 5,1,18.0,3.0,5.0,Specpr.,Brick-Panel,Partial amenities,11000.0,57.000974,24.12127055
For sale,Iļģuciems,Daugavgrīvas 132,2,51.0,3.0,5.0,Staļina,Brick,All amenities,66000.0,56.96895055,24.07125109079925
For sale,Āgenskalns,Rododendru 14,3,54.0,3.0,5.0,Specpr.,Brick,All amenities,59000.0,56.948221499999995,24.04980085
For sale,Vecmīlgrāvis,Baltāsbaznīcas 23,1,24.0,4.0,4.0,Hrušč.,Brick,All amenities,20700.0,57.035971200000006,24.092222
For rent,Purvciems,Marsa g. 6,2,50.0,1.0,5.0,LT proj.,Panel,All amenities,350.0,56.95183839999999,24.1999196
For rent,centrs,Elizabetes 9,2,57.0,2.0,5.0,P. kara,Masonry,All amenities,500.0,56.9592539,24.100972
For rent,Jugla,Juglas 12,2,60.0,12.0,12.0,104.,Brick-Panel,All amenities,330.0,56.98477270000001,24.249121372500376
For rent,centrs,Pērnavas 14,2,42.0,4.0,5.0,Hrušč.,Brick,All amenities,340.0,56.9639569,24.149780650000004
For sale,centrs,Dzirnavu 18,3,60.0,2.0,4.0,P. kara,Masonry,All amenities,119000.0,56.9599049,24.11005570754655
For rent,Ziepniekkalns,Ozolciema 8,1,32.0,1.0,9.0,Specpr.,Brick,All amenities,220.0,56.8989409,24.083389257737277
For rent,Bolderāja,Lemešu 7,2,50.0,6.0,9.0,602.,Panel,All amenities,220.0,57.03271070000001,24.0550827
For sale,Ziepniekkalns,Mālu 7,2,54.0,4.0,6.0,Specpr.,Brick,All amenities,65000.0,56.91252040000001,24.10268353167793
For rent,centrs,Ģertrūdes 129,2,37.0,4.0,5.0,Renov.,Brick,All amenities,35.0,56.947741099999995,24.14170556719833
For rent,Imanta,Anniņmuižas bulvāris 38,1,52.0,6.0,15.0,Jaun.,Brick-Panel,All amenities,390.0,56.96112105,24.018216795250048
For rent,Sarkandaugava,Pededzes 4,2,42.0,3.0,5.0,Hrušč.,Brick,All amenities,240.0,56.9879162,24.13501440000001
For sale,Ziepniekkalns,Ozolciema 52,1,40.0,1.0,9.0,M. ģim.,Panel,All amenities,37000.0,56.9010096,24.099975638354906
For sale,Vecmīlgrāvis,Dombrovska 41,3,63.0,5.0,9.0,602.,Panel,All amenities,60000.0,57.0336529,24.103627077307607
For rent,centrs,Lāčplēša 16,1,20.0,5.0,6.0,P. kara,Masonry,All amenities,140.0,56.95556745,24.122441867142854
For sale,Zolitūde,Skrīnes 2,2,60.0,2.0,3.0,Jaun.,Panel-Brick,All amenities,97010.0,56.94210210000001,24.0243648
For rent,Šampēteris-Pleskodāle,Lielirbes 11,3,92.0,12.0,25.0,Jaun.,Brick-Panel,All amenities,650.0,56.934064500000005,24.043638100000003
For sale,Zolitūde,Ruses 26,2,58.0,8.0,9.0,119.,Panel,All amenities,53800.0,56.9454805,24.009710100000003
For sale,Ķengarags,Maskavas 250/8,1,30.0,4.0,5.0,LT proj.,Panel,All amenities,27900.0,56.94454165000001,24.112673832213282
For sale,Purvciems,Nīcgales 4,4,75.0,6.0,9.0,467.,Panel,All amenities,69900.0,56.95855255,24.175316327579107
For rent,centrs,Sapieru 3b,1,26.0,4.0,5.0,Renov.,Brick,All amenities,330.0,56.96305770000001,24.1531056
For rent,centrs,Tērbatas 41,1,20.0,1.0,5.0,P. kara,Masonry,All amenities,295.0,56.9557759,24.1253193
For rent,Zolitūde,Gramzdas 80,2,72.0,2.0,4.0,Jaun.,Panel-Brick,All amenities,500.0,56.94145735,24.00301883923461
For sale,Purvciems,Zvaigznāja g. 4,3,55.0,5.0,5.0,LT proj.,Panel,All amenities,51000.0,56.9527936,24.2063812
For sale,Vecmīlgrāvis,Melīdas 11,3,60.0,6.0,9.0,467.,Panel,All amenities,60500.0,57.03189690000001,24.1109505
For sale,Dārzciems,Stopiņu 18,2,57.0,2.0,2.0,P. kara,Wood,Partial amenities,18000.0,56.94880765,24.170728566492265
For sale,Ziepniekkalns,Valdeķu 18,1,42.0,3.0,5.0,M. ģim.,Panel,All amenities,33000.0,56.9094064,24.0954157
For sale,centrs,Barona 24/26,2,51.0,3.0,6.0,Renov.,Masonry,All amenities,155000.0,56.95161295,24.12245714786153
For sale,Pļavnieki,Ilūkstes 12,5,90.0,1.0,9.0,602.,Panel,All amenities,73900.0,56.93717765,24.19580517644372
For sale,Purvciems,Kalsnavas 2e,2,59.0,5.0,9.0,119.,Panel,All amenities,59700.0,56.95456995,24.16825678629955
For sale,centrs,Kalniņa 8,4,113.0,3.0,5.0,P. kara,Masonry,All amenities,200000.0,56.949923999999996,24.120658600000002
For rent,centrs,Matīsa 81,1,25.0,2.0,2.0,P. kara,Masonry,All amenities,280.0,56.9531103,24.1420699
For rent,Sarkandaugava,Tvaika 16,2,35.0,3.0,5.0,Hrušč.,Brick,All amenities,220.0,57.00004499999999,24.11848749170049
For sale,Daugavgrīva,Parādes 2,3,67.0,1.0,5.0,103.,Panel-Brick,All amenities,50000.0,57.043286050000006,24.03359534999999
For sale,centrs,Ganību d. 15,2,41.0,1.0,3.0,P. kara,Masonry,All amenities,58900.0,56.9928319,24.1224521
For sale,centrs,Valdemāra 95,3,79.0,5.0,5.0,Staļina,Masonry,All amenities,95800.0,56.9642554,24.12654425891088
For rent,Pļavnieki,Zemes 3,1,14.0,2.0,9.0,602.,Panel,All amenities,135.0,56.942271,24.197206777858337
For rent,Imanta,Progresa 31,1,22.0,2.0,2.0,Priv. m.,Brick,All amenities,250.0,56.95768705,24.0324805
For rent,Torņakalns,Vaiņodes 24a,2,36.0,4.0,5.0,LT proj.,Panel,Partial amenities,295.0,56.914672200000005,24.091812899999997
For sale,Mežciems,Hipokrāta 33,4,77.0,5.0,9.0,602.,Panel,All amenities,75000.0,56.960931,24.23649755245534
For sale,centrs,Tomsona 4,2,37.0,1.0,6.0,Renov.,Masonry,All amenities,45000.0,56.96362585,24.124318707516824
For rent,centrs,Miera 105,2,46.0,2.0,6.0,Renov.,Masonry,All amenities,450.0,56.96657629999999,24.1337504
For sale,centrs,Blaumaņa 12,3,77.0,4.0,6.0,Renov.,Masonry,All amenities,198223.0,56.9548306,24.1221141
For sale,centrs,Miera 105,3,71.6,6.0,6.0,Renov.,Masonry,All amenities,130300.0,56.96657629999999,24.1337504
For rent,Imanta,Kleistu 179,1,27.0,1.0,5.0,LT proj.,Panel,All amenities,220.0,56.96757370000001,24.0276706
For rent,Āgenskalns,Kuģu 22,2,45.0,5.0,6.0,Hrušč.,Brick,All amenities,450.0,56.9425517,24.094887574772986
For sale,Ķengarags,Krustpils 73/4,1,17.0,3.0,3.0,M. ģim.,Brick,All amenities,15500.0,56.92936360000001,24.1835723
For sale,centrs,Brīvības iela 76,4,146.0,6.0,6.0,P. kara,Masonry,All amenities,270000.0,56.9583571,24.1252547
For sale,Imanta,Anniņmuižas bulvāris 38,2,64.0,10.0,18.0,Jaun.,Panel,All amenities,95000.0,56.96112105,24.018216795250048
For sale,Purvciems,Viršu 11,2,46.0,6.0,9.0,119.,Panel,All amenities,53000.0,56.951724899999995,24.180454610143823
For sale,Vecrīga,13. janvāra 33,1,45.0,3.0,4.0,Renov.,Masonry,All amenities,105000.0,56.94451965,24.109784817254585
For sale,Vecrīga,13. janvāra 33,1,40.0,3.0,4.0,Renov.,Masonry,All amenities,110000.0,56.94451965,24.109784817254585
For sale,centrs,Blaumaņa 12,3,64.2,4.0,6.0,Renov.,Masonry,All amenities,152475.0,56.9548306,24.1221141
For sale,Sarkandaugava,Viestura pr. 55,3,63.0,2.0,9.0,Specpr.,Brick,All amenities,48000.0,56.998436600000005,24.1328951
For rent,centrs,Republikas laukums 3,2,56.0,2.0,7.0,Jaun.,Masonry,All amenities,43.0,56.9552522,24.0999991251943
For sale,Jugla,Vangažu 15,1,37.0,8.0,12.0,Specpr.,Brick-Panel,All amenities,49000.0,56.987283700000006,24.22981595462379
For sale,Pļavnieki,Deglava 106,2,62.0,2.0,9.0,119.,Panel,All amenities,54900.0,56.94796725000001,24.189865925387586
For sale,Āgenskalns,M. Nometņu 85,Citi,207.0,2.0,2.0,P. kara,Wood,All amenities,79000.0,56.93779065,24.055589476395784
For sale,Maskavas priekšpilsēta,Maskavas 95,1,31.0,4.0,5.0,P. kara,Panel,Partial amenities,17900.0,56.8597884,24.3083417
For sale,centrs,Ieroču 2,1,29.0,4.0,4.0,Hrušč.,Brick,All amenities,35000.0,56.975373600000005,24.13914420351005
For sale,Purvciems,Burtnieku 36a,3,78.0,2.0,5.0,Jaun.,Panel,All amenities,103000.0,56.967044200000004,24.1820249
For sale,Sarkandaugava,Tvaika 50,1,26.0,5.0,5.0,Hrušč.,Brick,All amenities,26500.0,57.006972899999994,24.12172331562972
For sale,centrs,Valdemāra 73,3,80.0,3.0,6.0,P. kara,Masonry,All amenities,175000.0,56.962213299999995,24.1233217
For sale,Āgenskalns,Augļu 11,3,67.0,1.0,5.0,103.,Brick-Panel,All amenities,79000.0,56.93821515,24.07955375467484
For rent,centrs,Pērnavas 4,3,60.0,1.0,3.0,P. kara,Masonry,All amenities,400.0,56.9663437,24.147678362946657
For rent,Āgenskalns,Mūkusalas 29,2,52.1,2.0,4.0,Jaun.,Masonry,All amenities,650.0,56.93693955000001,24.10193236312368
For rent,Šampēteris-Pleskodāle,Lielirbes 13,3,90.0,5.0,30.0,Jaun.,Masonry,All amenities,650.0,56.933499600000005,24.0424848
For rent,Āgenskalns,Lielirbes 13,3,90.0,5.0,30.0,Jaun.,Masonry,All amenities,650.0,56.933499600000005,24.0424848
For sale,Vecrīga,Kungu 25,2,41.0,2.0,6.0,Specpr.,Panel,All amenities,92990.0,56.9453382,24.109463953308822
For sale,Vecrīga,Kungu 25,1,23.0,2.0,6.0,Specpr.,Panel,All amenities,49990.0,56.9453382,24.109463953308822
For sale,Purvciems,Dudajeva g. 11,3,64.0,5.0,5.0,LT proj.,Panel,All amenities,48300.0,56.9570069,24.198736800000002
For sale,Vecrīga,Kungu 25,1,28.0,6.0,6.0,Specpr.,Panel,All amenities,61990.0,56.9453382,24.109463953308822
For sale,Vecrīga,Kungu 25,1,24.0,2.0,6.0,Specpr.,Panel,All amenities,51990.0,56.9453382,24.109463953308822
For sale,Vecrīga,Kungu 25,1,23.0,2.0,6.0,Specpr.,Panel,All amenities,50990.0,56.9453382,24.109463953308822
For sale,Vecrīga,Kungu 25,3,55.0,3.0,6.0,Specpr.,Panel,All amenities,124990.0,56.9453382,24.109463953308822
For sale,Vecrīga,Kungu 25,3,91.0,6.0,6.0,Specpr.,Panel,All amenities,139990.0,56.9453382,24.109463953308822
For sale,Purvciems,Stirnu 14,1,39.0,1.0,5.0,M. ģim.,Panel,All amenities,30500.0,56.95362445000001,24.183362450000004
For sale,Purvciems,Stirnu 22,1,37.0,4.0,5.0,Specpr.,Brick,All amenities,32700.0,56.956179500000005,24.1835724
For rent,centrs,Elijas 20,1,40.0,1.0,5.0,P. kara,Brick,All amenities,25.0,56.9411476,24.124248100000003
For sale,Vecmīlgrāvis,Meldru 24,2,50.0,3.0,5.0,LT proj.,Panel,All amenities,37900.0,57.03262235,24.09540702973588
For sale,Imanta,Slokas 185,3,66.0,5.0,5.0,LT proj.,Panel,All amenities,55300.0,56.9631072,24.018805751784768
For rent,Ķengarags,Ikšķiles 16,1,16.0,4.0,5.0,LT proj.,Panel,All amenities,160.0,56.90257745,24.21006525720561
For sale,Dzegužkalns,Dzirciema 1,2,53.0,1.0,5.0,103.,Brick-Panel,All amenities,64000.0,56.94946529999999,24.053538791132322
For sale,Purvciems,Raunas 35,2,44.0,2.0,5.0,Hrušč.,Brick,All amenities,50000.0,56.9684301,24.178993959023238
For sale,Ķengarags,Maskavas 321,2,49.0,1.0,5.0,LT proj.,Panel,All amenities,46700.0,56.8597884,24.3083417
For rent,Jugla,Vidzemes al. 1,1,35.0,3.0,9.0,Čehu pr.,Brick-Panel,All amenities,265.0,56.99359675,24.242844166237113
For sale,Vecmīlgrāvis,Emmas 3a,2,49.0,2.0,5.0,Specpr.,Brick,All amenities,32000.0,57.02896645,24.10663595
For sale,centrs,Rūpniecības 44,3,81.0,7.0,8.0,Jaun.,Brick-Panel,All amenities,185000.0,56.966365100000004,24.105112603862782
For rent,Purvciems,Kastrānes 1 k-2,1,16.0,1.0,5.0,Renov.,Brick-Panel,All amenities,230.0,56.969345499999996,24.178415150000006
For sale,Šampēteris-Pleskodāle,Mikus 20,3,53.0,1.0,2.0,Priv. m.,Brick,Partial amenities,59000.0,56.93985415,24.024615574015012
For rent,Vecmīlgrāvis,Emmas 28,2,37.0,4.0,4.0,Staļina,Brick,All amenities,310.0,57.03179875,24.116664434629
For sale,Bukulti,Ādažu 11,3,148.0,3.0,3.0,Jaun.,Panel-Brick,All amenities,210000.0,57.02123470000001,24.129701999999998
For sale,centrs,Pērnavas 10,3,80.0,5.0,5.0,Staļina,Brick-Panel,All amenities,128000.0,56.964723899999996,24.1477109
For sale,centrs,Avotu 2,6,138.0,6.0,7.0,P. kara,Brick,All amenities,115000.0,56.9509145,24.126845044225373
For sale,centrs,M. Matīsa 3,1,22.0,1.0,5.0,P. kara,Brick,All amenities,18800.0,56.9437711,24.158132657072887
For sale,Purvciems,Dzelzavas 88,2,51.0,3.0,5.0,LT proj.,Panel,All amenities,49000.0,56.95394079999999,24.206367295092463
For sale,Purvciems,Ieriķu 32,3,59.0,4.0,5.0,Specpr.,Brick,All amenities,64000.0,56.96450485,24.17215785957441
For sale,centrs,Čaka 36,1,33.0,5.0,5.0,P. kara,Masonry,All amenities,48285.0,56.952698,24.1299733
For sale,Mežciems,Biķernieku 160,2,58.0,3.0,5.0,Jaun.,Panel,All amenities,96000.0,56.9569585,24.253680399999997
For rent,centrs,Maskavas 146,2,28.0,4.0,5.0,Renov.,Masonry,All amenities,280.0,56.8597884,24.3083417
For sale,centrs,Čaka 36,1,48.0,5.0,5.0,P. kara,Masonry,All amenities,69600.0,56.952698,24.1299733
For sale,centrs,Čaka 36,2,54.0,1.0,5.0,P. kara,Masonry,All amenities,72495.0,56.952698,24.1299733
For rent,Krasta r-ns,Ogres 14,2,52.0,5.0,9.0,467.,Panel,All amenities,300.0,56.9246777,24.165422537903233
For sale,Grīziņkalns,Vārnu 11a,2,40.0,1.0,4.0,P. kara,Masonry,All amenities,37000.0,56.9588802,24.149425833619407
For sale,centrs,Nītaures 3,3,101.0,3.0,7.0,Jaun.,Masonry,All amenities,170000.0,56.96361450000001,24.123509908986613
For rent,Pļavnieki,Saharova 7,1,40.0,6.0,9.0,M. ģim.,Panel,All amenities,270.0,56.93515745,24.200200711641088
For sale,Bolderāja,Lemešu 15,2,49.0,4.0,5.0,LT proj.,Panel,All amenities,45000.0,57.03224029999999,24.05322685
For sale,centrs,Čaka 68,3,58.0,2.0,6.0,Specpr.,Brick,All amenities,82000.0,56.9555119,24.135235100000003
For rent,Mežaparks,Sudrabu Edžus 13,4,125.0,2.0,2.0,P. kara,Wood,All amenities,900.0,56.99749235,24.167566450823266
For rent,centrs,Brīvības iela 68,1,18.0,4.0,6.0,Renov.,Masonry,All amenities,300.0,56.957263399999995,24.123268799999998
For rent,Vecrīga,Vaļņu 8,3,100.0,3.0,5.0,P. kara,Masonry,All amenities,760.0,56.9505804,24.110075600000002
For sale,Purvciems,Dzelzavas 93,3,60.0,3.0,5.0,LT proj.,Panel,All amenities,52000.0,56.9554841,24.20213933925591
For sale,Vecmīlgrāvis,Edžiņa g. 7,3,56.0,1.0,5.0,LT proj.,Panel,All amenities,35000.0,57.031674800000005,24.1063938
For sale,Ķengarags,Maskavas 254,3,60.0,2.0,5.0,LT proj.,Panel,All amenities,51000.0,56.91162465,24.174374826982554
For sale,Vecmīlgrāvis,Kreimeņu 3,2,56.0,1.0,5.0,103.,Brick-Panel,All amenities,43500.0,57.03464345,24.089318798995556
For rent,centrs,Valkas 4,2,63.0,2.0,5.0,Jaun.,Masonry,All amenities,1100.0,56.9622671,24.102416
For sale,Berģi,Berģu 9,2,36.2,3.0,4.0,Hrušč.,Brick,All amenities,32900.0,56.99786715000001,24.277341526994306
For sale,Āgenskalns,Zeļļu 5,3,79.0,1.0,4.0,P. kara,Brick,All amenities,74500.0,56.93527355000001,24.073266779117432
For rent,Ķīpsala,Balasta d. 72,3,116.0,2.0,5.0,Renov.,Masonry,All amenities,1800.0,56.948934400000006,24.0882804
For rent,Imanta,M. Krūmu 1,3,69.0,5.0,5.0,LT proj.,Panel,All amenities,320.0,56.9572544,24.002205147681842
For sale,Ķengarags,Prūšu 4,3,63.0,5.0,5.0,Jaun.,Panel,All amenities,76494.0,56.914674700000006,24.181507934641882
For sale,centrs,Indrānu 8,2,56.0,2.0,6.0,Jaun.,Brick-Panel,All amenities,108000.0,56.968497899999996,24.1467035
For sale,Ziepniekkalns,Līvciema 43,2,41.0,2.0,5.0,Hrušč.,Brick,All amenities,40000.0,56.90509875,24.102703178381034
For sale,Vecmīlgrāvis,Sniega 2,1,28.0,5.0,5.0,LT proj.,Panel,All amenities,31900.0,57.0337701,24.09840055
For sale,Ķengarags,Maltas 15,3,59.0,1.0,5.0,LT proj.,Panel,All amenities,44988.0,56.9106275,24.183669470648926
For sale,Ķengarags,Maltas 29,3,59.0,1.0,5.0,LT proj.,Panel,All amenities,45500.0,56.904551100000006,24.1941032
For sale,centrs,Lienes 27,1,24.0,1.0,2.0,P. kara,Masonry,All amenities,25000.0,56.95185735,24.150068072172818
For rent,Ziepniekkalns,Ozolciema 20/1,1,20.0,2.0,10.0,119.,Panel-Brick,All amenities,165.0,56.899030700000004,24.078598899999996
For rent,Zolitūde,Anniņmuižas 40,2,55.0,4.0,5.0,LT proj.,Panel,All amenities,300.0,56.96072455,24.009425336692576
For sale,centrs,Katrīnas 21,2,50.0,1.0,3.0,P. kara,Brick,All amenities,34000.0,56.97128295,24.101640218402324
For rent,centrs,Miera 101,2,45.0,4.0,5.0,P. kara,Masonry,All amenities,400.0,56.96657629999999,24.1337504
For rent,centrs,Ģertrūdes 93,1,26.0,1.0,5.0,P. kara,Brick-Panel,All amenities,260.0,56.95032385,24.13596767402321
For sale,centrs,Barona 14,4,155.0,2.0,5.0,Renov.,Masonry,All amenities,434000.0,56.9506147,24.121231299999998
For rent,centrs,Lāčplēša 35,1,24.0,3.0,6.0,P. kara,Masonry,All amenities,125.0,56.9535179,24.127078
For sale,Purvciems,Ilūkstes 107,2,49.0,5.0,9.0,467.,Panel,All amenities,45000.0,56.95369015,24.1977413
For rent,centrs,Mālpils 2,2,42.0,4.0,5.0,Hrušč.,Brick,All amenities,330.0,56.96682239999999,24.126954026733287
For rent,Maskavas priekšpilsēta,Lomonosova 2,1,32.0,2.0,4.0,Staļina,Masonry,All amenities,25.0,56.9383326,24.155885111979128
For sale,Ķengarags,Krustpils 62,2,47.0,1.0,3.0,Staļina,Brick,All amenities,47800.0,56.8955665,24.22544197603127
For sale,Purvciems,Deglava 106,2,62.0,2.0,9.0,119.,Panel,All amenities,54900.0,56.94796725000001,24.189865925387586
For rent,centrs,Valdemāra 20,3,131.0,5.0,5.0,P. kara,Masonry,All amenities,1200.0,56.95770095,24.116461389111148
For rent,centrs,Vīlandes 2,2,61.0,5.0,5.0,Renov.,Masonry,All amenities,700.0,56.95920965,24.102157394385358
For rent,centrs,Rūpniecības 21,5,161.0,5.0,5.0,Jaun.,Masonry,All amenities,2200.0,56.9660465,24.1019662
For sale,centrs,Valdemāra 77,2,55.0,3.0,5.0,P. kara,Masonry,All amenities,118000.0,56.9626669,24.124053399999998
For rent,centrs,Klusā 18,1,16.0,4.0,9.0,Renov.,Brick-Panel,All amenities,230.0,56.976211899999996,24.14626194976959
For sale,centrs,Tomsona 42,3,54.0,5.0,5.0,Hrušč.,Brick,All amenities,70000.0,56.96867625,24.13004095
For rent,centrs,Elizabetes 2a,4,95.0,3.0,5.0,P. kara,Brick,All amenities,600.0,56.95812539999999,24.108049781514087
For rent,Ķengarags,Maskavas 315,1,35.0,1.0,12.0,Čehu pr.,Brick,All amenities,250.0,56.8597884,24.3083417
For sale,Purvciems,Ilūkstes 42,3,83.0,8.0,9.0,119.,Panel,All amenities,73500.0,56.94868505,24.198071150000004
For sale,Imanta,M. Krūmu 10,2,50.0,3.0,9.0,602.,Panel,All amenities,53500.0,56.95924615,24.0038878
For rent,Āgenskalns,Vīlipa 12,1,49.0,3.0,7.0,Jaun.,Panel-Brick,All amenities,290.0,56.94825305,24.05532856354439
For rent,Imanta,Rigondas g. 3,2,46.0,6.0,12.0,Čehu pr.,Brick-Panel,All amenities,450.0,56.9648157,24.019053399999997
For rent,Jugla,Ūdeļu 29,2,47.0,5.0,5.0,103.,Brick-Panel,All amenities,300.0,56.976811899999994,24.264004054924715
For sale,centrs,Klusā 18,3,47.0,9.0,9.0,Renov.,Masonry,All amenities,97000.0,56.976211899999996,24.14626194976959
For sale,centrs,Hospitāļu 7,1,35.0,2.0,5.0,Specpr.,Brick-Panel,All amenities,44900.0,56.9702595,24.13550502761668
For sale,Dzegužkalns,Dzirciema 71,2,51.0,7.0,9.0,602.,Panel,All amenities,42900.0,56.96512045,24.054982889336852
For sale,Zolitūde,Rostokas 56,2,51.0,1.0,9.0,119.,Panel,All amenities,51000.0,54.14361,12.05044145
For rent,Bolderāja,Platā 22,1,40.0,7.0,9.0,Specpr.,Brick,All amenities,250.0,57.0280131,24.0412216
For sale,Ķengarags,Višķu 13,1,31.0,2.0,5.0,LT proj.,Panel,All amenities,33550.0,56.899912199999996,24.21241010000001
For sale,Jugla,Lorupes 4,1,28.0,1.0,2.0,Hrušč.,Brick,All amenities,21990.0,56.97533275,24.2650674
For sale,centrs,Valdemāra 77,3,181.0,5.0,6.0,P. kara,Masonry,All amenities,169000.0,56.9626669,24.124053399999998
For sale,centrs,Miera 5,2,65.5,2.0,6.0,P. kara,Masonry,All amenities,101525.0,56.96657629999999,24.1337504
For rent,centrs,Bruņinieku 8,3,113.0,5.0,5.0,P. kara,Masonry,All amenities,750.0,56.959662,24.1249341
For sale,centrs,Barona 30,2,55.0,2.0,7.0,Renov.,Masonry,All amenities,153500.0,56.95235279999999,24.1238417
For sale,centrs,Cēsu 43,2,64.0,1.0,5.0,P. kara,Masonry,All amenities,70000.0,56.966339500000004,24.1442451
For rent,centrs,Barona 63,2,59.0,2.0,6.0,P. kara,Masonry,All amenities,400.0,56.95713205,24.13275913197816
For sale,centrs,Eksporta 6,5,132.0,3.0,5.0,Renov.,Masonry,All amenities,164900.0,56.956763,24.0954531
For sale,centrs,Birznieka-Upīša 13,3,79.4,2.0,7.0,Jaun.,Panel-Brick,All amenities,218000.0,56.94932950000001,24.126489205607477
For sale,Imanta,Dammes 31,3,62.0,9.0,9.0,602.,Panel,All amenities,61500.0,56.96469885,24.007582175896918
For sale,Sarkandaugava,Tilta 24,1,33.0,1.0,5.0,P. kara,Masonry,All amenities,26000.0,56.994927399999995,24.12865231331853
For sale,Imanta,Vīksnes 29a,3,63.0,1.0,9.0,602.,Panel,All amenities,65500.0,56.9590376,24.002696762737376
For sale,centrs,Tomsona 9,3,128.0,5.0,6.0,Jaun.,Panel-Brick,All amenities,198000.0,56.96428355000001,24.12455414798608
For sale,Mežaparks,Ezermalas 13,3,95.0,3.0,5.0,Specpr.,Brick-Panel,All amenities,144000.0,56.99733515,24.1704467
For sale,Purvciems,Viršu 3,3,76.0,6.0,9.0,119.,Panel,All amenities,92700.0,56.9521257,24.176113800000024
For sale,Bieriņi,Kantora 85/1,3,77.0,2.0,3.0,Jaun.,Brick,All amenities,127500.0,56.9197056,24.058748
For sale,Ķīpsala,Balasta d. 72,2,89.0,4.0,4.0,Jaun.,Brick,All amenities,230000.0,56.948934400000006,24.0882804
For sale,Dzegužkalns,Saldus 2a,2,48.0,2.0,3.0,Hrušč.,Brick,All amenities,33500.0,56.96206215,24.06522424122577
For rent,Bolderāja,Lielupes 68,2,48.0,5.0,5.0,LT proj.,Panel,All amenities,220.0,57.03099005,24.0574072
For sale,Ziepniekkalns,Ozolciema 48,1,44.0,7.0,9.0,M. ģim.,Panel,All amenities,34450.0,56.90048705,24.100607425766412
For sale,Mežciems,Kaivas 29,3,80.0,4.0,4.0,Jaun.,Panel,All amenities,139000.0,56.9503372,24.24451410156045
For sale,Imanta,Kleistu 18,3,60.0,5.0,5.0,LT proj.,Panel,All amenities,51900.0,56.9639239,24.0250927
For rent,centrs,Jeruzalemes 10,3,125.0,5.0,2.0,Jaun.,Panel,All amenities,1350.0,56.957814799999994,24.1142082
For sale,Jugla,Vangažu 26,3,74.0,11.0,12.0,Čehu pr.,Brick,All amenities,87000.0,56.98611335,24.227137766815325
For sale,Sarkandaugava,Hāpsalas 21,1,24.0,2.0,2.0,P. kara,Brick,Partial amenities,7900.0,57.00301175,24.120898893399072
For sale,Pļavnieki,Pļavnieku 3,2,51.0,3.0,9.0,602.,Panel,All amenities,59500.0,56.9427642,24.209070800000003
For rent,Zolitūde,Anniņmuižas 20,4,104.0,4.0,6.0,Jaun.,Panel,All amenities,628.0,56.94280435,24.017229193873447
For rent,centrs,Dzirnavu 63,2,52.4,4.0,6.0,P. kara,Masonry,All amenities,900.0,56.9548743,24.120069
For sale,Zolitūde,Gramzdas 80,3,109.0,1.0,4.0,Jaun.,Brick-Panel,All amenities,142000.0,56.94145735,24.00301883923461
